{"type": "FeatureCollection", "features": [{"id": "ID-PORT-0010", "type": "Feature", "geometry": {"type": "Point", "coordinates": [98.6956, 3.7841]}, "properties": {"name": "BELAWAN", "biome": null, "country": "INDONESIA", "trase_id": "ID-PORT-0010", "parent_name": "MEDAN (KOTA)", "node_type_name": "Port", "node_type_slug": "port", "parent_node_type_name": "Kabupaten"}}, {"id": "ID-PORT-0151", "type": "Feature", "geometry": {"type": "Point", "coordinates": [119.5469, -5.0783]}, "properties": {"name": "UJUNG PANDANG / HASANUDDIN (U)", "biome": null, "country": "INDONESIA", "trase_id": "ID-PORT-0151", "parent_name": "MAROS", "node_type_name": "Port", "node_type_slug": "port", "parent_node_type_name": "Kabupaten"}}, {"id": "ID-PORT-0060", "type": "Feature", "geometry": {"type": "Point", "coordinates": [134.0755, -0.8676]}, "properties": {"name": "MANOKWARI", "biome": null, "country": "INDONESIA", "trase_id": "ID-PORT-0060", "parent_name": "MANOKWARI", "node_type_name": "Port", "node_type_slug": "port", "parent_node_type_name": "Kabupaten"}}, {"id": "ID-PORT-0015", "type": "Feature", "geometry": {"type": "Point", "coordinates": [115.2086, -8.7419]}, "properties": {"name": "BENOA", "biome": null, "country": "INDONESIA", "trase_id": "ID-PORT-0015", "parent_name": "DENPASAR (KOTA)", "node_type_name": "Port", "node_type_slug": "port", "parent_node_type_name": "Kabupaten"}}, {"id": "ID-PORT-0097", "type": "Feature", "geometry": {"type": "Point", "coordinates": [117.1787, -0.5614]}, "properties": {"name": "SAMARINDA", "biome": null, "country": "INDONESIA", "trase_id": "ID-PORT-0097", "parent_name": "SAMARINDA (KOTA)", "node_type_name": "Port", "node_type_slug": "port", "parent_node_type_name": "Kabupaten"}}, {"id": "ID-PORT-0005", "type": "Feature", "geometry": {"type": "Point", "coordinates": [116.8195, -1.2549]}, "properties": {"name": "BALIKPAPAN", "biome": null, "country": "INDONESIA", "trase_id": "ID-PORT-0005", "parent_name": "BALIKPAPAN (KOTA)", "node_type_name": "Port", "node_type_slug": "port", "parent_node_type_name": "Kabupaten"}}, {"id": "ID-PORT-0050", "type": "Feature", "geometry": {"type": "Point", "coordinates": [111.7537, -2.7163]}, "properties": {"name": "KUMAI", "biome": null, "country": "INDONESIA", "trase_id": "ID-PORT-0050", "parent_name": "KOTAWARINGIN BARAT", "node_type_name": "Port", "node_type_slug": "port", "parent_node_type_name": "Kabupaten"}}, {"id": "ID-PORT-0088", "type": "Feature", "geometry": {"type": "Point", "coordinates": [109.3113, 0.0039]}, "properties": {"name": "PONTIANAK", "biome": null, "country": "INDONESIA", "trase_id": "ID-PORT-0088", "parent_name": "PONTIANAK (KOTA)", "node_type_name": "Port", "node_type_slug": "port", "parent_node_type_name": "Kabupaten"}}, {"id": "ID-PORT-0025", "type": "Feature", "geometry": {"type": "Point", "coordinates": [108.5695, -6.7106]}, "properties": {"name": "CIREBON", "biome": null, "country": "INDONESIA", "trase_id": "ID-PORT-0025", "parent_name": "CIREBON (KOTA)", "node_type_name": "Port", "node_type_slug": "port", "parent_node_type_name": "Kabupaten"}}, {"id": "ID-PORT-0142", "type": "Feature", "geometry": {"type": "Point", "coordinates": [104.2176, 1.0762]}, "properties": {"name": "TANJUNG UBAN", "biome": null, "country": "INDONESIA", "trase_id": "ID-PORT-0142", "parent_name": "BINTAN", "node_type_name": "Port", "node_type_slug": "port", "parent_node_type_name": "Kabupaten"}}, {"id": "ID-PORT-0027", "type": "Feature", "geometry": {"type": "Point", "coordinates": [101.4475, 1.686]}, "properties": {"name": "DUMAI", "biome": null, "country": "INDONESIA", "trase_id": "ID-PORT-0027", "parent_name": "DUMAI (KOTA)", "node_type_name": "Port", "node_type_slug": "port", "parent_node_type_name": "Kabupaten"}}, {"id": "ID-PORT-0114", "type": "Feature", "geometry": {"type": "Point", "coordinates": [110.4308, -6.9508]}, "properties": {"name": "SEMARANG", "biome": null, "country": "INDONESIA", "trase_id": "ID-PORT-0114", "parent_name": "SEMARANG (KOTA)", "node_type_name": "Port", "node_type_slug": "port", "parent_node_type_name": "Kabupaten"}}, {"id": "ID-PORT-0130", "type": "Feature", "geometry": {"type": "Point", "coordinates": [112.7932, -7.3757]}, "properties": {"name": "SURABAYA /JUANDA (U)", "biome": null, "country": "INDONESIA", "trase_id": "ID-PORT-0130", "parent_name": "SIDOARJO", "node_type_name": "Port", "node_type_slug": "port", "parent_node_type_name": "Kabupaten"}}, {"id": "ID-PORT-0057", "type": "Feature", "geometry": {"type": "Point", "coordinates": [117.9828, 0.9198]}, "properties": {"name": "MALOY", "biome": null, "country": "INDONESIA", "trase_id": "ID-PORT-0057", "parent_name": "KUTAI TIMUR", "node_type_name": "Port", "node_type_slug": "port", "parent_node_type_name": "Kabupaten"}}, {"id": "ID-PORT-0031", "type": "Feature", "geometry": {"type": "Point", "coordinates": [140.7133, -2.5456]}, "properties": {"name": "JAYAPURA", "biome": null, "country": "INDONESIA", "trase_id": "ID-PORT-0031", "parent_name": "JAYAPURA (KOTA)", "node_type_name": "Port", "node_type_slug": "port", "parent_node_type_name": "Kabupaten"}}, {"id": "ID-PORT-0132", "type": "Feature", "geometry": {"type": "Point", "coordinates": [116.1514, -1.823]}, "properties": {"name": "TANAH MERAH/GROGOT", "biome": null, "country": "INDONESIA", "trase_id": "ID-PORT-0132", "parent_name": "PASER", "node_type_name": "Port", "node_type_slug": "port", "parent_node_type_name": "Kabupaten"}}, {"id": "ID-PORT-0048", "type": "Feature", "geometry": {"type": "Point", "coordinates": [99.4408, 3.3696]}, "properties": {"name": "KUALA TANJUNG", "biome": null, "country": "INDONESIA", "trase_id": "ID-PORT-0048", "parent_name": "BATU BARA", "node_type_name": "Port", "node_type_slug": "port", "parent_node_type_name": "Kabupaten"}}, {"id": "ID-PORT-0046", "type": "Feature", "geometry": {"type": "Point", "coordinates": [114.2554, -3.3456]}, "properties": {"name": "KUALA KAPUAS", "biome": null, "country": "INDONESIA", "trase_id": "ID-PORT-0046", "parent_name": "KAPUAS", "node_type_name": "Port", "node_type_slug": "port", "parent_node_type_name": "Kabupaten"}}, {"id": "ID-PORT-0014", "type": "Feature", "geometry": {"type": "Point", "coordinates": [102.3046, -3.9073]}, "properties": {"name": "BENGKULU", "biome": null, "country": "INDONESIA", "trase_id": "ID-PORT-0014", "parent_name": "BENGKULU (KOTA)", "node_type_name": "Port", "node_type_slug": "port", "parent_node_type_name": "Kabupaten"}}, {"id": "ID-PORT-0072", "type": "Feature", "geometry": {"type": "Point", "coordinates": [104.7794, -2.9806]}, "properties": {"name": "PALEMBANG", "biome": null, "country": "INDONESIA", "trase_id": "ID-PORT-0072", "parent_name": "PALEMBANG (KOTA)", "node_type_name": "Port", "node_type_slug": "port", "parent_node_type_name": "Kabupaten"}}, {"id": "ID-PORT-0028", "type": "Feature", "geometry": {"type": "Point", "coordinates": [112.6617, -7.154]}, "properties": {"name": "GRESIK", "biome": null, "country": "INDONESIA", "trase_id": "ID-PORT-0028", "parent_name": "GRESIK", "node_type_name": "Port", "node_type_slug": "port", "parent_node_type_name": "Kabupaten"}}, {"id": "ID-PORT-0119", "type": "Feature", "geometry": {"type": "Point", "coordinates": [116.188, -3.2685]}, "properties": {"name": "STAGEN", "biome": null, "country": "INDONESIA", "trase_id": "ID-PORT-0119", "parent_name": "KOTABARU", "node_type_name": "Port", "node_type_slug": "port", "parent_node_type_name": "Kabupaten"}}, {"id": "ID-PORT-0099", "type": "Feature", "geometry": {"type": "Point", "coordinates": [112.964, -2.5377]}, "properties": {"name": "SAMPIT", "biome": null, "country": "INDONESIA", "trase_id": "ID-PORT-0099", "parent_name": "KOTAWARINGIN TIMUR", "node_type_name": "Port", "node_type_slug": "port", "parent_node_type_name": "Kabupaten"}}, {"id": "ID-PORT-0016", "type": "Feature", "geometry": {"type": "Point", "coordinates": [125.1601, 1.4399]}, "properties": {"name": "BITUNG", "biome": null, "country": "INDONESIA", "trase_id": "ID-PORT-0016", "parent_name": "BITUNG (KOTA)", "node_type_name": "Port", "node_type_slug": "port", "parent_node_type_name": "Kabupaten"}}, {"id": "ID-PORT-0137", "type": "Feature", "geometry": {"type": "Point", "coordinates": [106.8817, -6.1007]}, "properties": {"name": "TANJUNG PRIOK", "biome": null, "country": "INDONESIA", "trase_id": "ID-PORT-0137", "parent_name": "JAKARTA UTARA (KOTA)", "node_type_name": "Port", "node_type_slug": "port", "parent_node_type_name": "Kabupaten"}}, {"id": "ID-PORT-0136", "type": "Feature", "geometry": {"type": "Point", "coordinates": [112.74, -7.2052]}, "properties": {"name": "TANJUNG PERAK", "biome": null, "country": "INDONESIA", "trase_id": "ID-PORT-0136", "parent_name": "SURABAYA (KOTA)", "node_type_name": "Port", "node_type_slug": "port", "parent_node_type_name": "Kabupaten"}}, {"id": "ID-PORT-0056", "type": "Feature", "geometry": {"type": "Point", "coordinates": [119.4094, -5.1183]}, "properties": {"name": "MAKASSAR", "biome": null, "country": "INDONESIA", "trase_id": "ID-PORT-0056", "parent_name": "MAKASSAR (KOTA)", "node_type_name": "Port", "node_type_slug": "port", "parent_node_type_name": "Kabupaten"}}, {"id": "ID-PORT-0078", "type": "Feature", "geometry": {"type": "Point", "coordinates": [105.3193, -5.4737]}, "properties": {"name": "PANJANG", "biome": null, "country": "INDONESIA", "trase_id": "ID-PORT-0078", "parent_name": "BANDAR LAMPUNG (KOTA)", "node_type_name": "Port", "node_type_slug": "port", "parent_node_type_name": "Kabupaten"}}, {"id": "ID-PORT-0135", "type": "Feature", "geometry": {"type": "Point", "coordinates": [107.6299, -2.7452]}, "properties": {"name": "TANJUNG PANDAN", "biome": null, "country": "INDONESIA", "trase_id": "ID-PORT-0135", "parent_name": "BELITUNG", "node_type_name": "Port", "node_type_slug": "port", "parent_node_type_name": "Kabupaten"}}, {"id": "ID-PORT-0143", "type": "Feature", "geometry": {"type": "Point", "coordinates": [105.3507, -5.5263]}, "properties": {"name": "TARAHAN", "biome": null, "country": "INDONESIA", "trase_id": "ID-PORT-0143", "parent_name": "LAMPUNG SELATAN", "node_type_name": "Port", "node_type_slug": "port", "parent_node_type_name": "Kabupaten"}}, {"id": "ID-PORT-0144", "type": "Feature", "geometry": {"type": "Point", "coordinates": [116.118, -3.2716]}, "properties": {"name": "TARJUN", "biome": null, "country": "INDONESIA", "trase_id": "ID-PORT-0144", "parent_name": "KOTABARU", "node_type_name": "Port", "node_type_slug": "port", "parent_node_type_name": "Kabupaten"}}, {"id": "ID-PORT-0036", "type": "Feature", "geometry": {"type": "Point", "coordinates": [104.134, 1.0729]}, "properties": {"name": "KABIL", "biome": null, "country": "INDONESIA", "trase_id": "ID-PORT-0036", "parent_name": "BATAM (KOTA)", "node_type_name": "Port", "node_type_slug": "port", "parent_node_type_name": "Kabupaten"}}, {"id": "ID-PORT-0095", "type": "Feature", "geometry": {"type": "Point", "coordinates": [102.3344, -0.352]}, "properties": {"name": "RENGAT/ JAPURA (U)", "biome": null, "country": "INDONESIA", "trase_id": "ID-PORT-0095", "parent_name": "INDRAGIRI HULU", "node_type_name": "Port", "node_type_slug": "port", "parent_node_type_name": "Kabupaten"}}, {"id": "ID-PORT-0007", "type": "Feature", "geometry": {"type": "Point", "coordinates": [104.0014, 1.1697]}, "properties": {"name": "BATU AMPAR", "biome": null, "country": "INDONESIA", "trase_id": "ID-PORT-0007", "parent_name": "BATAM (KOTA)", "node_type_name": "Port", "node_type_slug": "port", "parent_node_type_name": "Kabupaten"}}, {"id": "ID-PORT-0121", "type": "Feature", "geometry": {"type": "Point", "coordinates": [104.7035, -2.8965]}, "properties": {"name": "SULTAN MAHMUD BADARUDDIN (U)", "biome": null, "country": "INDONESIA", "trase_id": "ID-PORT-0121", "parent_name": "PALEMBANG (KOTA)", "node_type_name": "Port", "node_type_slug": "port", "parent_node_type_name": "Kabupaten"}}, {"id": "ID-PORT-0058", "type": "Feature", "geometry": {"type": "Point", "coordinates": [118.8912, -2.6725]}, "properties": {"name": "MAMUJU", "biome": null, "country": "INDONESIA", "trase_id": "ID-PORT-0058", "parent_name": "MAMUJU", "node_type_name": "Port", "node_type_slug": "port", "parent_node_type_name": "Kabupaten"}}, {"id": "ID-PORT-0079", "type": "Feature", "geometry": {"type": "Point", "coordinates": [119.8571, -0.7101]}, "properties": {"name": "PANTOLOAN", "biome": null, "country": "INDONESIA", "trase_id": "ID-PORT-0079", "parent_name": "PALU (KOTA)", "node_type_name": "Port", "node_type_slug": "port", "parent_node_type_name": "Kabupaten"}}, {"id": "ID-PORT-0059", "type": "Feature", "geometry": {"type": "Point", "coordinates": [108.2893, -2.8479]}, "properties": {"name": "MANGGAR", "biome": null, "country": "INDONESIA", "trase_id": "ID-PORT-0059", "parent_name": "BELITUNG TIMUR", "node_type_name": "Port", "node_type_slug": "port", "parent_node_type_name": "Kabupaten"}}, {"id": "ID-PORT-0118", "type": "Feature", "geometry": {"type": "Point", "coordinates": [106.6559, -6.1268]}, "properties": {"name": "SOEKARNO-HATTA (U)", "biome": null, "country": "INDONESIA", "trase_id": "ID-PORT-0118", "parent_name": "TANGERANG (KOTA)", "node_type_name": "Port", "node_type_slug": "port", "parent_node_type_name": "Kabupaten"}}, {"id": "ID-PORT-0069", "type": "Feature", "geometry": {"type": "Point", "coordinates": [115.1691, -8.7458]}, "properties": {"name": "NGURAH RAI (U)", "biome": null, "country": "INDONESIA", "trase_id": "ID-PORT-0069", "parent_name": "BADUNG", "node_type_name": "Port", "node_type_slug": "port", "parent_node_type_name": "Kabupaten"}}, {"id": "ID-PORT-0011", "type": "Feature", "geometry": {"type": "Point", "coordinates": [105.7354, -1.6297]}, "properties": {"name": "BELINJU", "biome": null, "country": "INDONESIA", "trase_id": "ID-PORT-0011", "parent_name": "BANGKA", "node_type_name": "Port", "node_type_slug": "port", "parent_node_type_name": "Kabupaten"}}, {"id": "ID-PORT-0147", "type": "Feature", "geometry": {"type": "Point", "coordinates": [100.3727, -0.9967]}, "properties": {"name": "TELUK BAYUR", "biome": null, "country": "INDONESIA", "trase_id": "ID-PORT-0147", "parent_name": "PADANG (KOTA)", "node_type_name": "Port", "node_type_slug": "port", "parent_node_type_name": "Kabupaten"}}, {"id": "ID-PORT-0052", "type": "Feature", "geometry": {"type": "Point", "coordinates": [117.3215, 2.0924]}, "properties": {"name": "LABANAN", "biome": null, "country": "INDONESIA", "trase_id": "ID-PORT-0052", "parent_name": "BERAU", "node_type_name": "Port", "node_type_slug": "port", "parent_node_type_name": "Kabupaten"}}, {"id": "ID-PORT-0131", "type": "Feature", "geometry": {"type": "Point", "coordinates": [103.6601, -1.534]}, "properties": {"name": "TALANG DUKU", "biome": null, "country": "INDONESIA", "trase_id": "ID-PORT-0131", "parent_name": "MUARO JAMBI", "node_type_name": "Port", "node_type_slug": "port", "parent_node_type_name": "Kabupaten"}}, {"id": "ID-PORT-0019", "type": "Feature", "geometry": {"type": "Point", "coordinates": [101.8094, 0.748]}, "properties": {"name": "BUATAN", "biome": null, "country": "INDONESIA", "trase_id": "ID-PORT-0019", "parent_name": "SIAK", "node_type_name": "Port", "node_type_slug": "port", "parent_node_type_name": "Kabupaten"}}, {"id": "ID-PORT-0116", "type": "Feature", "geometry": {"type": "Point", "coordinates": [111.5561, 0.214]}, "properties": {"name": "SINTANG", "biome": null, "country": "INDONESIA", "trase_id": "ID-PORT-0116", "parent_name": "SINTANG", "node_type_name": "Port", "node_type_slug": "port", "parent_node_type_name": "Kabupaten"}}, {"id": "ID-PORT-0071", "type": "Feature", "geometry": {"type": "Point", "coordinates": [112.7424, -2.3023]}, "properties": {"name": "PALANGAN", "biome": null, "country": "INDONESIA", "trase_id": "ID-PORT-0071", "parent_name": "KOTAWARINGIN TIMUR", "node_type_name": "Port", "node_type_slug": "port", "parent_node_type_name": "Kabupaten"}}, {"id": "ID-PORT-0033", "type": "Feature", "geometry": {"type": "Point", "coordinates": [112.9217, -2.7285]}, "properties": {"name": "JETTY WILMAR - BAGENDANG", "biome": null, "country": "INDONESIA", "trase_id": "ID-PORT-0033", "parent_name": "KOTAWARINGIN TIMUR", "node_type_name": "Port", "node_type_slug": "port", "parent_node_type_name": "Kabupaten"}}, {"id": "ID-PORT-0003", "type": "Feature", "geometry": {"type": "Point", "coordinates": [112.931, -2.7193]}, "properties": {"name": "BAGENDANG", "biome": null, "country": "INDONESIA", "trase_id": "ID-PORT-0003", "parent_name": "KOTAWARINGIN TIMUR", "node_type_name": "Port", "node_type_slug": "port", "parent_node_type_name": "Kabupaten"}}, {"id": "ID-PORT-0021", "type": "Feature", "geometry": {"type": "Point", "coordinates": [111.8022, -2.6255]}, "properties": {"name": "BUMI HARJO", "biome": null, "country": "INDONESIA", "trase_id": "ID-PORT-0021", "parent_name": "KOTAWARINGIN BARAT", "node_type_name": "Port", "node_type_slug": "port", "parent_node_type_name": "Kabupaten"}}, {"id": "ID-PORT-0030", "type": "Feature", "geometry": {"type": "Point", "coordinates": [104.1238, -2.614]}, "properties": {"name": "HINDOLI SUNGAI LILIN", "biome": null, "country": "INDONESIA", "trase_id": "ID-PORT-0030", "parent_name": "MUSI BANYUASIN", "node_type_name": "Port", "node_type_slug": "port", "parent_node_type_name": "Kabupaten"}}, {"id": "ID-PORT-0115", "type": "Feature", "geometry": {"type": "Point", "coordinates": [102.0638, 0.7949]}, "properties": {"name": "SIAK", "biome": null, "country": "INDONESIA", "trase_id": "ID-PORT-0115", "parent_name": "SIAK", "node_type_name": "Port", "node_type_slug": "port", "parent_node_type_name": "Kabupaten"}}, {"id": "ID-PORT-0107", "type": "Feature", "geometry": {"type": "Point", "coordinates": [110.3391, -0.1022]}, "properties": {"name": "SEI MAYAM", "biome": null, "country": "INDONESIA", "trase_id": "ID-PORT-0107", "parent_name": "SANGGAU", "node_type_name": "Port", "node_type_slug": "port", "parent_node_type_name": "Kabupaten"}}, {"id": "ID-PORT-0101", "type": "Feature", "geometry": {"type": "Point", "coordinates": [115.4232, -3.7664]}, "properties": {"name": "SATUI", "biome": null, "country": "INDONESIA", "trase_id": "ID-PORT-0101", "parent_name": "TANAH BUMBU", "node_type_name": "Port", "node_type_slug": "port", "parent_node_type_name": "Kabupaten"}}, {"id": "ID-PORT-0075", "type": "Feature", "geometry": {"type": "Point", "coordinates": [111.8693, -2.495]}, "properties": {"name": "PANGKALAN BANTENG", "biome": null, "country": "INDONESIA", "trase_id": "ID-PORT-0075", "parent_name": "KOTAWARINGIN BARAT", "node_type_name": "Port", "node_type_slug": "port", "parent_node_type_name": "Kabupaten"}}, {"id": "ID-PORT-0113", "type": "Feature", "geometry": {"type": "Point", "coordinates": [116.2246, -2.5243]}, "properties": {"name": "SELABAK", "biome": null, "country": "INDONESIA", "trase_id": "ID-PORT-0113", "parent_name": "KOTABARU", "node_type_name": "Port", "node_type_slug": "port", "parent_node_type_name": "Kabupaten"}}, {"id": "ID-PORT-0145", "type": "Feature", "geometry": {"type": "Point", "coordinates": [110.0866, -0.0396]}, "properties": {"name": "TAYAN", "biome": null, "country": "INDONESIA", "trase_id": "ID-PORT-0145", "parent_name": "SANGGAU", "node_type_name": "Port", "node_type_slug": "port", "parent_node_type_name": "Kabupaten"}}, {"id": "ID-PORT-0073", "type": "Feature", "geometry": {"type": "Point", "coordinates": [116.3372, -2.4344]}, "properties": {"name": "PAMUKAN", "biome": null, "country": "INDONESIA", "trase_id": "ID-PORT-0073", "parent_name": "KOTABARU", "node_type_name": "Port", "node_type_slug": "port", "parent_node_type_name": "Kabupaten"}}, {"id": "ID-PORT-0055", "type": "Feature", "geometry": {"type": "Point", "coordinates": [101.3658, 1.7523]}, "properties": {"name": "LUBUK GAUNG", "biome": null, "country": "INDONESIA", "trase_id": "ID-PORT-0055", "parent_name": "DUMAI (KOTA)", "node_type_name": "Port", "node_type_slug": "port", "parent_node_type_name": "Kabupaten"}}, {"id": "ID-PORT-0080", "type": "Feature", "geometry": {"type": "Point", "coordinates": [112.8004, -2.0296]}, "properties": {"name": "PARENGGEAN", "biome": null, "country": "INDONESIA", "trase_id": "ID-PORT-0080", "parent_name": "KOTAWARINGIN TIMUR", "node_type_name": "Port", "node_type_slug": "port", "parent_node_type_name": "Kabupaten"}}, {"id": "ID-PORT-0106", "type": "Feature", "geometry": {"type": "Point", "coordinates": [104.8321, -2.994]}, "properties": {"name": "SEI LAIS PALEMBANG", "biome": null, "country": "INDONESIA", "trase_id": "ID-PORT-0106", "parent_name": "PALEMBANG (KOTA)", "node_type_name": "Port", "node_type_slug": "port", "parent_node_type_name": "Kabupaten"}}, {"id": "ID-PORT-0125", "type": "Feature", "geometry": {"type": "Point", "coordinates": [103.6066, 0.2914]}, "properties": {"name": "SUNGAI GUNTUNG", "biome": null, "country": "INDONESIA", "trase_id": "ID-PORT-0125", "parent_name": "INDRAGIRI HILIR", "node_type_name": "Port", "node_type_slug": "port", "parent_node_type_name": "Kabupaten"}}, {"id": "ID-PORT-0152", "type": "Feature", "geometry": {"type": "Point", "coordinates": [109.2819, 0.0121]}, "properties": {"name": "WAJOK", "biome": null, "country": "INDONESIA", "trase_id": "ID-PORT-0152", "parent_name": "MEMPAWAH", "node_type_name": "Port", "node_type_slug": "port", "parent_node_type_name": "Kabupaten"}}, {"id": "ID-PORT-0150", "type": "Feature", "geometry": {"type": "Point", "coordinates": [111.0633, -2.6648]}, "properties": {"name": "UAI", "biome": null, "country": "INDONESIA", "trase_id": "ID-PORT-0150", "parent_name": "KETAPANG", "node_type_name": "Port", "node_type_slug": "port", "parent_node_type_name": "Kabupaten"}}, {"id": "ID-PORT-0062", "type": "Feature", "geometry": {"type": "Point", "coordinates": [110.1731, -1.0967]}, "properties": {"name": "MATAN JAYA", "biome": null, "country": "INDONESIA", "trase_id": "ID-PORT-0062", "parent_name": "KAYONG UTARA", "node_type_name": "Port", "node_type_slug": "port", "parent_node_type_name": "Kabupaten"}}, {"id": "ID-PORT-0041", "type": "Feature", "geometry": {"type": "Point", "coordinates": [110.9864, -2.1407]}, "properties": {"name": "KELAMPAI", "biome": null, "country": "INDONESIA", "trase_id": "ID-PORT-0041", "parent_name": "KETAPANG", "node_type_name": "Port", "node_type_slug": "port", "parent_node_type_name": "Kabupaten"}}, {"id": "ID-PORT-0004", "type": "Feature", "geometry": {"type": "Point", "coordinates": [121.6771, -2.1745]}, "properties": {"name": "BAHUMBELU", "biome": null, "country": "INDONESIA", "trase_id": "ID-PORT-0004", "parent_name": "MOROWALI", "node_type_name": "Port", "node_type_slug": "port", "parent_node_type_name": "Kabupaten"}}, {"id": "ID-PORT-0103", "type": "Feature", "geometry": {"type": "Point", "coordinates": [117.0135, -0.2833]}, "properties": {"name": "SEBULU", "biome": null, "country": "INDONESIA", "trase_id": "ID-PORT-0103", "parent_name": "KUTAI KARTANEGARA", "node_type_name": "Port", "node_type_slug": "port", "parent_node_type_name": "Kabupaten"}}, {"id": "ID-PORT-0090", "type": "Feature", "geometry": {"type": "Point", "coordinates": [103.1584, 0.1272]}, "properties": {"name": "PT. THIP NYATO PULAI", "biome": null, "country": "INDONESIA", "trase_id": "ID-PORT-0090", "parent_name": "INDRAGIRI HILIR", "node_type_name": "Port", "node_type_slug": "port", "parent_node_type_name": "Kabupaten"}}, {"id": "ID-PORT-0149", "type": "Feature", "geometry": {"type": "Point", "coordinates": [114.5691, -3.2969]}, "properties": {"name": "TRISAKTI", "biome": null, "country": "INDONESIA", "trase_id": "ID-PORT-0149", "parent_name": "BANJARMASIN (KOTA)", "node_type_name": "Port", "node_type_slug": "port", "parent_node_type_name": "Kabupaten"}}, {"id": "ID-PORT-0091", "type": "Feature", "geometry": {"type": "Point", "coordinates": [103.1673, 0.2135]}, "properties": {"name": "PT. THIP PULAI", "biome": null, "country": "INDONESIA", "trase_id": "ID-PORT-0091", "parent_name": "INDRAGIRI HILIR", "node_type_name": "Port", "node_type_slug": "port", "parent_node_type_name": "Kabupaten"}}, {"id": "ID-PORT-0081", "type": "Feature", "geometry": {"type": "Point", "coordinates": [117.8101, 1.2244]}, "properties": {"name": "PENGADAN", "biome": null, "country": "INDONESIA", "trase_id": "ID-PORT-0081", "parent_name": "KUTAI TIMUR", "node_type_name": "Port", "node_type_slug": "port", "parent_node_type_name": "Kabupaten"}}, {"id": "ID-PORT-0104", "type": "Feature", "geometry": {"type": "Point", "coordinates": [109.2513, -0.2667]}, "properties": {"name": "SEI DERAS", "biome": null, "country": "INDONESIA", "trase_id": "ID-PORT-0104", "parent_name": "KUBU RAYA", "node_type_name": "Port", "node_type_slug": "port", "parent_node_type_name": "Kabupaten"}}, {"id": "ID-PORT-0045", "type": "Feature", "geometry": {"type": "Point", "coordinates": [102.6916, -0.4714]}, "properties": {"name": "KUALA CENAKU", "biome": null, "country": "INDONESIA", "trase_id": "ID-PORT-0045", "parent_name": "INDRAGIRI HULU", "node_type_name": "Port", "node_type_slug": "port", "parent_node_type_name": "Kabupaten"}}, {"id": "ID-PORT-0089", "type": "Feature", "geometry": {"type": "Point", "coordinates": [103.1584, 0.1272]}, "properties": {"name": "PT. THIP NYATO", "biome": null, "country": "INDONESIA", "trase_id": "ID-PORT-0089", "parent_name": "INDRAGIRI HILIR", "node_type_name": "Port", "node_type_slug": "port", "parent_node_type_name": "Kabupaten"}}, {"id": "ID-PORT-0009", "type": "Feature", "geometry": {"type": "Point", "coordinates": [102.7053, -0.4802]}, "properties": {"name": "BAYAS", "biome": null, "country": "INDONESIA", "trase_id": "ID-PORT-0009", "parent_name": "INDRAGIRI HILIR", "node_type_name": "Port", "node_type_slug": "port", "parent_node_type_name": "Kabupaten"}}, {"id": "ID-PORT-0070", "type": "Feature", "geometry": {"type": "Point", "coordinates": [103.2893, 0.1609]}, "properties": {"name": "NYATO/PULAI", "biome": null, "country": "INDONESIA", "trase_id": "ID-PORT-0070", "parent_name": "INDRAGIRI HILIR", "node_type_name": "Port", "node_type_slug": "port", "parent_node_type_name": "Kabupaten"}}, {"id": "ID-PORT-0040", "type": "Feature", "geometry": {"type": "Point", "coordinates": [109.2679, 1.3888]}, "properties": {"name": "KARTIASA", "biome": null, "country": "INDONESIA", "trase_id": "ID-PORT-0040", "parent_name": "SAMBAS", "node_type_name": "Port", "node_type_slug": "port", "parent_node_type_name": "Kabupaten"}}, {"id": "ID-PORT-0093", "type": "Feature", "geometry": {"type": "Point", "coordinates": [117.8587, 1.1963]}, "properties": {"name": "RANTAU BAHAN, SANGKULIRANG", "biome": null, "country": "INDONESIA", "trase_id": "ID-PORT-0093", "parent_name": "KUTAI TIMUR", "node_type_name": "Port", "node_type_slug": "port", "parent_node_type_name": "Kabupaten"}}, {"id": "ID-PORT-0126", "type": "Feature", "geometry": {"type": "Point", "coordinates": [117.257, -0.571]}, "properties": {"name": "SUNGAI MERIAM", "biome": null, "country": "INDONESIA", "trase_id": "ID-PORT-0126", "parent_name": "KUTAI KARTANEGARA", "node_type_name": "Port", "node_type_slug": "port", "parent_node_type_name": "Kabupaten"}}, {"id": "ID-PORT-0017", "type": "Feature", "geometry": {"type": "Point", "coordinates": [119.2919, -1.6509]}, "properties": {"name": "BONE MANJING", "biome": null, "country": "INDONESIA", "trase_id": "ID-PORT-0017", "parent_name": "MAMUJU UTARA", "node_type_name": "Port", "node_type_slug": "port", "parent_node_type_name": "Kabupaten"}}, {"id": "ID-PORT-0109", "type": "Feature", "geometry": {"type": "Point", "coordinates": [111.1923, 0.0808]}, "properties": {"name": "SEKADAU", "biome": null, "country": "INDONESIA", "trase_id": "ID-PORT-0109", "parent_name": "SEKADAU", "node_type_name": "Port", "node_type_slug": "port", "parent_node_type_name": "Kabupaten"}}, {"id": "ID-PORT-0051", "type": "Feature", "geometry": {"type": "Point", "coordinates": [109.6021, 1.4057]}, "properties": {"name": "KUMBA", "biome": null, "country": "INDONESIA", "trase_id": "ID-PORT-0051", "parent_name": "SAMBAS", "node_type_name": "Port", "node_type_slug": "port", "parent_node_type_name": "Kabupaten"}}, {"id": "ID-PORT-0117", "type": "Feature", "geometry": {"type": "Point", "coordinates": [109.0547, 1.198]}, "properties": {"name": "SINTETE", "biome": null, "country": "INDONESIA", "trase_id": "ID-PORT-0117", "parent_name": "SAMBAS", "node_type_name": "Port", "node_type_slug": "port", "parent_node_type_name": "Kabupaten"}}, {"id": "ID-PORT-0140", "type": "Feature", "geometry": {"type": "Point", "coordinates": [120.2028, -2.9868]}, "properties": {"name": "TANJUNG RINGGIT", "biome": null, "country": "INDONESIA", "trase_id": "ID-PORT-0140", "parent_name": "PALOPO (KOTA)", "node_type_name": "Port", "node_type_slug": "port", "parent_node_type_name": "Kabupaten"}}, {"id": "ID-PORT-0124", "type": "Feature", "geometry": {"type": "Point", "coordinates": [109.3993, -0.0955]}, "properties": {"name": "SUNGAI DURIAN", "biome": null, "country": "INDONESIA", "trase_id": "ID-PORT-0124", "parent_name": "KUBU RAYA", "node_type_name": "Port", "node_type_slug": "port", "parent_node_type_name": "Kabupaten"}}, {"id": "ID-PORT-0001", "type": "Feature", "geometry": {"type": "Point", "coordinates": [110.6532, -2.7811]}, "properties": {"name": "AIR HITAM", "biome": null, "country": "INDONESIA", "trase_id": "ID-PORT-0001", "parent_name": "KETAPANG", "node_type_name": "Port", "node_type_slug": "port", "parent_node_type_name": "Kabupaten"}}, {"id": "ID-PORT-0134", "type": "Feature", "geometry": {"type": "Point", "coordinates": [116.8395, -0.3213]}, "properties": {"name": "TANJUNG KARAS, BENUA PUHUN", "biome": null, "country": "INDONESIA", "trase_id": "ID-PORT-0134", "parent_name": "KUTAI KARTANEGARA", "node_type_name": "Port", "node_type_slug": "port", "parent_node_type_name": "Kabupaten"}}, {"id": "ID-PORT-0022", "type": "Feature", "geometry": {"type": "Point", "coordinates": [114.8341, -1.716]}, "properties": {"name": "BUNTOK", "biome": null, "country": "INDONESIA", "trase_id": "ID-PORT-0022", "parent_name": "BARITO SELATAN", "node_type_name": "Port", "node_type_slug": "port", "parent_node_type_name": "Kabupaten"}}, {"id": "ID-PORT-0063", "type": "Feature", "geometry": {"type": "Point", "coordinates": [110.2864, -0.1065]}, "properties": {"name": "MELIAU", "biome": null, "country": "INDONESIA", "trase_id": "ID-PORT-0063", "parent_name": "SANGGAU", "node_type_name": "Port", "node_type_slug": "port", "parent_node_type_name": "Kabupaten"}}, {"id": "ID-PORT-0054", "type": "Feature", "geometry": {"type": "Point", "coordinates": [117.0595, -0.5875]}, "properties": {"name": "LOA DURI", "biome": null, "country": "INDONESIA", "trase_id": "ID-PORT-0054", "parent_name": "KUTAI KARTANEGARA", "node_type_name": "Port", "node_type_slug": "port", "parent_node_type_name": "Kabupaten"}}, {"id": "ID-PORT-0013", "type": "Feature", "geometry": {"type": "Point", "coordinates": [107.643, -2.7501]}, "properties": {"name": "BELITUNG", "biome": null, "country": "INDONESIA", "trase_id": "ID-PORT-0013", "parent_name": "BELITUNG", "node_type_name": "Port", "node_type_slug": "port", "parent_node_type_name": "Kabupaten"}}, {"id": "ID-PORT-0020", "type": "Feature", "geometry": {"type": "Point", "coordinates": [116.7166, -1.2161]}, "properties": {"name": "BULUMINUNG", "biome": null, "country": "INDONESIA", "trase_id": "ID-PORT-0020", "parent_name": "PENAJAM PASER UTARA", "node_type_name": "Port", "node_type_slug": "port", "parent_node_type_name": "Kabupaten"}}, {"id": "ID-PORT-0074", "type": "Feature", "geometry": {"type": "Point", "coordinates": [106.126, -2.0935]}, "properties": {"name": "PANGKAL BALAM", "biome": null, "country": "INDONESIA", "trase_id": "ID-PORT-0074", "parent_name": "PANGKAL PINANG (KOTA)", "node_type_name": "Port", "node_type_slug": "port", "parent_node_type_name": "Kabupaten"}}, {"id": "ID-PORT-0043", "type": "Feature", "geometry": {"type": "Point", "coordinates": [116.7359, -1.1081]}, "properties": {"name": "KENANGAN", "biome": null, "country": "INDONESIA", "trase_id": "ID-PORT-0043", "parent_name": "BALIKPAPAN (KOTA)", "node_type_name": "Port", "node_type_slug": "port", "parent_node_type_name": "Kabupaten"}}, {"id": "ID-PORT-0024", "type": "Feature", "geometry": {"type": "Point", "coordinates": [105.8768, -3.412]}, "properties": {"name": "CENGAL", "biome": null, "country": "INDONESIA", "trase_id": "ID-PORT-0024", "parent_name": "OGAN KOMERING ILIR", "node_type_name": "Port", "node_type_slug": "port", "parent_node_type_name": "Kabupaten"}}, {"id": "ID-PORT-0096", "type": "Feature", "geometry": {"type": "Point", "coordinates": [117.3435, 2.9386]}, "properties": {"name": "SALIM BATU", "biome": null, "country": "INDONESIA", "trase_id": "ID-PORT-0096", "parent_name": "BULUNGAN", "node_type_name": "Port", "node_type_slug": "port", "parent_node_type_name": "Kabupaten"}}, {"id": "ID-PORT-0128", "type": "Feature", "geometry": {"type": "Point", "coordinates": [114.8952, -2.9382]}, "properties": {"name": "SUNGAI SALAI", "biome": null, "country": "INDONESIA", "trase_id": "ID-PORT-0128", "parent_name": "TAPIN", "node_type_name": "Port", "node_type_slug": "port", "parent_node_type_name": "Kabupaten"}}, {"id": "ID-PORT-0008", "type": "Feature", "geometry": {"type": "Point", "coordinates": [116.0098, -3.4636]}, "properties": {"name": "BATULICIN", "biome": null, "country": "INDONESIA", "trase_id": "ID-PORT-0008", "parent_name": "TANAH BUMBU", "node_type_name": "Port", "node_type_slug": "port", "parent_node_type_name": "Kabupaten"}}, {"id": "ID-PORT-0133", "type": "Feature", "geometry": {"type": "Point", "coordinates": [122.6285, -1.2091]}, "properties": {"name": "TANGKIANG", "biome": null, "country": "INDONESIA", "trase_id": "ID-PORT-0133", "parent_name": "BANGGAI", "node_type_name": "Port", "node_type_slug": "port", "parent_node_type_name": "Kabupaten"}}, {"id": "ID-PORT-0139", "type": "Feature", "geometry": {"type": "Point", "coordinates": [107.893, -3.0926]}, "properties": {"name": "TANJUNG RESING", "biome": null, "country": "INDONESIA", "trase_id": "ID-PORT-0139", "parent_name": "BELITUNG TIMUR", "node_type_name": "Port", "node_type_slug": "port", "parent_node_type_name": "Kabupaten"}}, {"id": "ID-PORT-0092", "type": "Feature", "geometry": {"type": "Point", "coordinates": [114.2523, -2.7621]}, "properties": {"name": "PULANG PISAU", "biome": null, "country": "INDONESIA", "trase_id": "ID-PORT-0092", "parent_name": "PULANG PISAU", "node_type_name": "Port", "node_type_slug": "port", "parent_node_type_name": "Kabupaten"}}, {"id": "ID-PORT-0038", "type": "Feature", "geometry": {"type": "Point", "coordinates": [112.7488, -2.1145]}, "properties": {"name": "KABUAU", "biome": null, "country": "INDONESIA", "trase_id": "ID-PORT-0038", "parent_name": "KOTAWARINGIN TIMUR", "node_type_name": "Port", "node_type_slug": "port", "parent_node_type_name": "Kabupaten"}}, {"id": "ID-PORT-0012", "type": "Feature", "geometry": {"type": "Point", "coordinates": [111.1439, 0.1017]}, "properties": {"name": "BELITANG", "biome": null, "country": "INDONESIA", "trase_id": "ID-PORT-0012", "parent_name": "SEKADAU", "node_type_name": "Port", "node_type_slug": "port", "parent_node_type_name": "Kabupaten"}}, {"id": "ID-PORT-0076", "type": "Feature", "geometry": {"type": "Point", "coordinates": [102.0785, 1.49]}, "properties": {"name": "PANGKALAN BATANG", "biome": null, "country": "INDONESIA", "trase_id": "ID-PORT-0076", "parent_name": "BENGKALIS", "node_type_name": "Port", "node_type_slug": "port", "parent_node_type_name": "Kabupaten"}}, {"id": "ID-PORT-0112", "type": "Feature", "geometry": {"type": "Point", "coordinates": [99.8009, 2.9862]}, "properties": {"name": "SEKUMULTI NABATI ASAHAN , PTNG", "biome": null, "country": "INDONESIA", "trase_id": "ID-PORT-0112", "parent_name": "ASAHAN", "node_type_name": "Port", "node_type_slug": "port", "parent_node_type_name": "Kabupaten"}}, {"id": "ID-PORT-0148", "type": "Feature", "geometry": {"type": "Point", "coordinates": [102.9215, -0.5166]}, "properties": {"name": "TEMBILAHAN", "biome": null, "country": "INDONESIA", "trase_id": "ID-PORT-0148", "parent_name": "INDRAGIRI HILIR", "node_type_name": "Port", "node_type_slug": "port", "parent_node_type_name": "Kabupaten"}}, {"id": "ID-PORT-0066", "type": "Feature", "geometry": {"type": "Point", "coordinates": [116.7753, 0.5176]}, "properties": {"name": "MUARA BENGKAL", "biome": null, "country": "INDONESIA", "trase_id": "ID-PORT-0066", "parent_name": "KUTAI TIMUR", "node_type_name": "Port", "node_type_slug": "port", "parent_node_type_name": "Kabupaten"}}, {"id": "ID-PORT-0086", "type": "Feature", "geometry": {"type": "Point", "coordinates": [116.7968, -0.285]}, "properties": {"name": "PMM JETTY, MUARA KAMAN", "biome": null, "country": "INDONESIA", "trase_id": "ID-PORT-0086", "parent_name": "KUTAI KARTANEGARA", "node_type_name": "Port", "node_type_slug": "port", "parent_node_type_name": "Kabupaten"}}, {"id": "ID-PORT-0111", "type": "Feature", "geometry": {"type": "Point", "coordinates": [117.1692, 3.2829]}, "properties": {"name": "SEKATAK", "biome": null, "country": "INDONESIA", "trase_id": "ID-PORT-0111", "parent_name": "BULUNGAN", "node_type_name": "Port", "node_type_slug": "port", "parent_node_type_name": "Kabupaten"}}, {"id": "ID-PORT-0044", "type": "Feature", "geometry": {"type": "Point", "coordinates": [121.579, -4.0503]}, "properties": {"name": "KOLAKA", "biome": null, "country": "INDONESIA", "trase_id": "ID-PORT-0044", "parent_name": "KOLAKA", "node_type_name": "Port", "node_type_slug": "port", "parent_node_type_name": "Kabupaten"}}, {"id": "ID-PORT-0061", "type": "Feature", "geometry": {"type": "Point", "coordinates": [114.7644, -2.9777]}, "properties": {"name": "MARABAHAN", "biome": null, "country": "INDONESIA", "trase_id": "ID-PORT-0061", "parent_name": "BARITO KUALA", "node_type_name": "Port", "node_type_slug": "port", "parent_node_type_name": "Kabupaten"}}, {"id": "ID-PORT-0100", "type": "Feature", "geometry": {"type": "Point", "coordinates": [110.1328, -0.052]}, "properties": {"name": "SANGGAU", "biome": null, "country": "INDONESIA", "trase_id": "ID-PORT-0100", "parent_name": "SANGGAU", "node_type_name": "Port", "node_type_slug": "port", "parent_node_type_name": "Kabupaten"}}, {"id": "ID-PORT-0146", "type": "Feature", "geometry": {"type": "Point", "coordinates": [104.6492, 1.0529]}, "properties": {"name": "TELUK BAKAU", "biome": null, "country": "INDONESIA", "trase_id": "ID-PORT-0146", "parent_name": "BINTAN", "node_type_name": "Port", "node_type_slug": "port", "parent_node_type_name": "Kabupaten"}}, {"id": "ID-PORT-0098", "type": "Feature", "geometry": {"type": "Point", "coordinates": [98.7854, 1.7296]}, "properties": {"name": "SAMBAS", "biome": null, "country": "INDONESIA", "trase_id": "ID-PORT-0098", "parent_name": "SIBOLGA (KOTA)", "node_type_name": "Port", "node_type_slug": "port", "parent_node_type_name": "Kabupaten"}}, {"id": "ID-PORT-0123", "type": "Feature", "geometry": {"type": "Point", "coordinates": [109.5447, -0.0173]}, "properties": {"name": "SUNGAI AMBAWANG", "biome": null, "country": "INDONESIA", "trase_id": "ID-PORT-0123", "parent_name": "KUBU RAYA", "node_type_name": "Port", "node_type_slug": "port", "parent_node_type_name": "Kabupaten"}}, {"id": "ID-PORT-0053", "type": "Feature", "geometry": {"type": "Point", "coordinates": [122.295, -3.295]}, "properties": {"name": "LAMERURU", "biome": null, "country": "INDONESIA", "trase_id": "ID-PORT-0053", "parent_name": "KONAWE UTARA", "node_type_name": "Port", "node_type_slug": "port", "parent_node_type_name": "Kabupaten"}}, {"id": "ID-PORT-0138", "type": "Feature", "geometry": {"type": "Point", "coordinates": [117.4945, 2.1574]}, "properties": {"name": "TANJUNG REDEP", "biome": null, "country": "INDONESIA", "trase_id": "ID-PORT-0138", "parent_name": "BERAU", "node_type_name": "Port", "node_type_slug": "port", "parent_node_type_name": "Kabupaten"}}, {"id": "ID-PORT-0042", "type": "Feature", "geometry": {"type": "Point", "coordinates": [116.6686, 3.6288]}, "properties": {"name": "KELAPIS", "biome": null, "country": "INDONESIA", "trase_id": "ID-PORT-0042", "parent_name": "MALINAU", "node_type_name": "Port", "node_type_slug": "port", "parent_node_type_name": "Kabupaten"}}, {"id": "ID-PORT-0108", "type": "Feature", "geometry": {"type": "Point", "coordinates": [109.425, -0.0234]}, "properties": {"name": "SEI TEMPAYAN", "biome": null, "country": "INDONESIA", "trase_id": "ID-PORT-0108", "parent_name": "KUBU RAYA", "node_type_name": "Port", "node_type_slug": "port", "parent_node_type_name": "Kabupaten"}}, {"id": "ID-PORT-0105", "type": "Feature", "geometry": {"type": "Point", "coordinates": [116.1264, -2.2215]}, "properties": {"name": "SEI KERANG", "biome": null, "country": "INDONESIA", "trase_id": "ID-PORT-0105", "parent_name": "PASER", "node_type_name": "Port", "node_type_slug": "port", "parent_node_type_name": "Kabupaten"}}, {"id": "ID-PORT-0084", "type": "Feature", "geometry": {"type": "Point", "coordinates": [103.5675, -2.7468]}, "properties": {"name": "PINAGO UTAMA", "biome": null, "country": "INDONESIA", "trase_id": "ID-PORT-0084", "parent_name": "MUSI BANYUASIN", "node_type_name": "Port", "node_type_slug": "port", "parent_node_type_name": "Kabupaten"}}, {"id": "ID-PORT-0102", "type": "Feature", "geometry": {"type": "Point", "coordinates": [117.2771, 4.0817]}, "properties": {"name": "SEBAKIS", "biome": null, "country": "INDONESIA", "trase_id": "ID-PORT-0102", "parent_name": "NUNUKAN", "node_type_name": "Port", "node_type_slug": "port", "parent_node_type_name": "Kabupaten"}}, {"id": "ID-PORT-0023", "type": "Feature", "geometry": {"type": "Point", "coordinates": [121.4211, 1.192]}, "properties": {"name": "BUOL", "biome": null, "country": "INDONESIA", "trase_id": "ID-PORT-0023", "parent_name": "BUOL", "node_type_name": "Port", "node_type_slug": "port", "parent_node_type_name": "Kabupaten"}}, {"id": "ID-PORT-0087", "type": "Feature", "geometry": {"type": "Point", "coordinates": [116.2507, -1.8052]}, "properties": {"name": "PONDONG", "biome": null, "country": "INDONESIA", "trase_id": "ID-PORT-0087", "parent_name": "PASER", "node_type_name": "Port", "node_type_slug": "port", "parent_node_type_name": "Kabupaten"}}, {"id": "ID-PORT-0034", "type": "Feature", "geometry": {"type": "Point", "coordinates": [101.6403, 1.6507]}, "properties": {"name": "JETTY WILMAR - PELINTUNG", "biome": null, "country": "INDONESIA", "trase_id": "ID-PORT-0034", "parent_name": "DUMAI (KOTA)", "node_type_name": "Port", "node_type_slug": "port", "parent_node_type_name": "Kabupaten"}}, {"id": "ID-PORT-0018", "type": "Feature", "geometry": {"type": "Point", "coordinates": [117.4907, 0.1812]}, "properties": {"name": "BONTANG", "biome": null, "country": "INDONESIA", "trase_id": "ID-PORT-0018", "parent_name": "BONTANG (KOTA)", "node_type_name": "Port", "node_type_slug": "port", "parent_node_type_name": "Kabupaten"}}, {"id": "ID-PORT-0082", "type": "Feature", "geometry": {"type": "Point", "coordinates": [104.8802, -2.959]}, "properties": {"name": "PERAJEN", "biome": null, "country": "INDONESIA", "trase_id": "ID-PORT-0082", "parent_name": "BANYUASIN", "node_type_name": "Port", "node_type_slug": "port", "parent_node_type_name": "Kabupaten"}}, {"id": "ID-PORT-0006", "type": "Feature", "geometry": {"type": "Point", "coordinates": [114.3989, -8.1282]}, "properties": {"name": "BANYUWANGI", "biome": null, "country": "INDONESIA", "trase_id": "ID-PORT-0006", "parent_name": "BANYUWANGI", "node_type_name": "Port", "node_type_slug": "port", "parent_node_type_name": "Kabupaten"}}, {"id": "ID-PORT-0077", "type": "Feature", "geometry": {"type": "Point", "coordinates": [98.6774, 3.5668]}, "properties": {"name": "PANGKALAN UDARA SOEWONDO/POLONIA (U)", "biome": null, "country": "INDONESIA", "trase_id": "ID-PORT-0077", "parent_name": "MEDAN (KOTA)", "node_type_name": "Port", "node_type_slug": "port", "parent_node_type_name": "Kabupaten"}}, {"id": "ID-PORT-0029", "type": "Feature", "geometry": {"type": "Point", "coordinates": [106.8848, -6.2662]}, "properties": {"name": "HALIM PERDANA KUSUMA (U)", "biome": null, "country": "INDONESIA", "trase_id": "ID-PORT-0029", "parent_name": "JAKARTA TIMUR (KOTA)", "node_type_name": "Port", "node_type_slug": "port", "parent_node_type_name": "Kabupaten"}}, {"id": "ID-PORT-0047", "type": "Feature", "geometry": {"type": "Point", "coordinates": [98.8768, 3.6359]}, "properties": {"name": "KUALA NAMU (U)", "biome": null, "country": "INDONESIA", "trase_id": "ID-PORT-0047", "parent_name": "DELI SERDANG", "node_type_name": "Port", "node_type_slug": "port", "parent_node_type_name": "Kabupaten"}}, {"id": "ID-PORT-0049", "type": "Feature", "geometry": {"type": "Point", "coordinates": [103.4605, -0.813]}, "properties": {"name": "KUALA TUNGKAL", "biome": null, "country": "INDONESIA", "trase_id": "ID-PORT-0049", "parent_name": "TANJUNG JABUNG BARAT", "node_type_name": "Port", "node_type_slug": "port", "parent_node_type_name": "Kabupaten"}}, {"id": "ID-PORT-0153", "type": "Feature", "geometry": {"type": "Point", "coordinates": [110.4345, -7.7864]}, "properties": {"name": "YOGYAKARTA / ADI SUCIPTO (U)", "biome": null, "country": "INDONESIA", "trase_id": "ID-PORT-0153", "parent_name": "SLEMAN", "node_type_name": "Port", "node_type_slug": "port", "parent_node_type_name": "Kabupaten"}}, {"id": "ID-PORT-0026", "type": "Feature", "geometry": {"type": "Point", "coordinates": [105.9536, -6.021]}, "properties": {"name": "CIWANDAN", "biome": null, "country": "INDONESIA", "trase_id": "ID-PORT-0026", "parent_name": "CILEGON (KOTA)", "node_type_name": "Port", "node_type_slug": "port", "parent_node_type_name": "Kabupaten"}}, {"id": "ID-PORT-0032", "type": "Feature", "geometry": {"type": "Point", "coordinates": [110.3746, -6.9669]}, "properties": {"name": "JENDERAL ACHMAD YANI (U)", "biome": null, "country": "INDONESIA", "trase_id": "ID-PORT-0032", "parent_name": "SEMARANG (KOTA)", "node_type_name": "Port", "node_type_slug": "port", "parent_node_type_name": "Kabupaten"}}, {"id": "ID-PORT-0068", "type": "Feature", "geometry": {"type": "Point", "coordinates": [111.8805, 1.0273]}, "properties": {"name": "NANGA BADAU", "biome": null, "country": "INDONESIA", "trase_id": "ID-PORT-0068", "parent_name": "KAPUAS HULU", "node_type_name": "Port", "node_type_slug": "port", "parent_node_type_name": "Kabupaten"}}, {"id": "ID-PORT-0141", "type": "Feature", "geometry": {"type": "Point", "coordinates": [117.3617, 2.836]}, "properties": {"name": "TANJUNG SELOR", "biome": null, "country": "INDONESIA", "trase_id": "ID-PORT-0141", "parent_name": "BULUNGAN", "node_type_name": "Port", "node_type_slug": "port", "parent_node_type_name": "Kabupaten"}}, {"id": "ID-PORT-0035", "type": "Feature", "geometry": {"type": "Point", "coordinates": [117.568, 3.3262]}, "properties": {"name": "JUWATA (U)", "biome": null, "country": "INDONESIA", "trase_id": "ID-PORT-0035", "parent_name": "TARAKAN (KOTA)", "node_type_name": "Port", "node_type_slug": "port", "parent_node_type_name": "Kabupaten"}}, {"id": "ID-PORT-0083", "type": "Feature", "geometry": {"type": "Point", "coordinates": [101.649, 0.6817]}, "properties": {"name": "PERAWANG, SUMATRA", "biome": null, "country": "INDONESIA", "trase_id": "ID-PORT-0083", "parent_name": "SIAK", "node_type_name": "Port", "node_type_slug": "port", "parent_node_type_name": "Kabupaten"}}, {"id": "ID-PORT-0122", "type": "Feature", "geometry": {"type": "Point", "coordinates": [103.6428, -1.6331]}, "properties": {"name": "SULTAN THAHA (U)", "biome": null, "country": "INDONESIA", "trase_id": "ID-PORT-0122", "parent_name": "JAMBI (KOTA)", "node_type_name": "Port", "node_type_slug": "port", "parent_node_type_name": "Kabupaten"}}, {"id": "ID-PORT-0129", "type": "Feature", "geometry": {"type": "Point", "coordinates": [109.4041, -0.147]}, "properties": {"name": "SUPADIO (U)", "biome": null, "country": "INDONESIA", "trase_id": "ID-PORT-0129", "parent_name": "KUBU RAYA", "node_type_name": "Port", "node_type_slug": "port", "parent_node_type_name": "Kabupaten"}}, {"id": "ID-PORT-0067", "type": "Feature", "geometry": {"type": "Point", "coordinates": [103.8514, -1.1299]}, "properties": {"name": "MUARA SABAK", "biome": null, "country": "INDONESIA", "trase_id": "ID-PORT-0067", "parent_name": "TANJUNG JABUNG TIMUR", "node_type_name": "Port", "node_type_slug": "port", "parent_node_type_name": "Kabupaten"}}, {"id": "ID-PORT-0120", "type": "Feature", "geometry": {"type": "Point", "coordinates": [109.9576, -1.7935]}, "properties": {"name": "SUKA BANGUN", "biome": null, "country": "INDONESIA", "trase_id": "ID-PORT-0120", "parent_name": "KETAPANG", "node_type_name": "Port", "node_type_slug": "port", "parent_node_type_name": "Kabupaten"}}, {"id": "ID-PORT-0002", "type": "Feature", "geometry": {"type": "Point", "coordinates": [140.4174, -6.6485]}, "properties": {"name": "ASIKE", "biome": null, "country": "INDONESIA", "trase_id": "ID-PORT-0002", "parent_name": "BOVEN DIGOEL", "node_type_name": "Port", "node_type_slug": "port", "parent_node_type_name": "Kabupaten"}}, {"id": "ID-PORT-0039", "type": "Feature", "geometry": {"type": "Point", "coordinates": [116.7883, -1.1789]}, "properties": {"name": "KARIANGAU", "biome": null, "country": "INDONESIA", "trase_id": "ID-PORT-0039", "parent_name": "BALIKPAPAN (KOTA)", "node_type_name": "Port", "node_type_slug": "port", "parent_node_type_name": "Kabupaten"}}, {"id": "ID-PORT-0094", "type": "Feature", "geometry": {"type": "Point", "coordinates": [102.549, -0.3745]}, "properties": {"name": "RENGAT", "biome": null, "country": "INDONESIA", "trase_id": "ID-PORT-0094", "parent_name": "INDRAGIRI HULU", "node_type_name": "Port", "node_type_slug": "port", "parent_node_type_name": "Kabupaten"}}, {"id": "ID-PORT-0160", "type": "Feature", "geometry": {"type": "Point", "coordinates": [117.595, 3.282]}, "properties": {"name": "LINGKAS TARAKAN", "biome": null, "country": "INDONESIA", "trase_id": "ID-PORT-0160", "parent_name": "TARAKAN (KOTA)", "node_type_name": "Port", "node_type_slug": "port", "parent_node_type_name": "Kabupaten"}}, {"id": "ID-PORT-0161", "type": "Feature", "geometry": {"type": "Point", "coordinates": [103.384, -0.5045]}, "properties": {"name": "KUALA ENOK", "biome": null, "country": "INDONESIA", "trase_id": "ID-PORT-0161", "parent_name": "INDRAGIRI HILIR", "node_type_name": "Port", "node_type_slug": "port", "parent_node_type_name": "Kabupaten"}}, {"id": "ID-PORT-0162", "type": "Feature", "geometry": {"type": "Point", "coordinates": [140.5136, -2.5698]}, "properties": {"name": "JAYAPURA / SENTANI (U)", "biome": null, "country": "INDONESIA", "trase_id": "ID-PORT-0162", "parent_name": "INDONESIA", "node_type_name": "Port", "node_type_slug": "port", "parent_node_type_name": "Country"}}, {"id": "ID-PORT-0163", "type": "Feature", "geometry": {"type": "Point", "coordinates": [113.9453, -2.2241]}, "properties": {"name": "TJILIK  RIWUT (U)", "biome": null, "country": "INDONESIA", "trase_id": "ID-PORT-0163", "parent_name": "INDONESIA", "node_type_name": "Port", "node_type_slug": "port", "parent_node_type_name": "Country"}}, {"id": "ID-PORT-0164", "type": "Feature", "geometry": {"type": "Point", "coordinates": [95.5719, 4.6313]}, "properties": {"name": "CALANG", "biome": null, "country": "INDONESIA", "trase_id": "ID-PORT-0164", "parent_name": "ACEH JAYA", "node_type_name": "Port", "node_type_slug": "port", "parent_node_type_name": "Kabupaten"}}, {"id": "ID-PORT-0165", "type": "Feature", "geometry": {"type": "Point", "coordinates": [109.9562, -1.1058]}, "properties": {"name": "TELOK MELANO", "biome": null, "country": "INDONESIA", "trase_id": "ID-PORT-0165", "parent_name": "KAYONG UTARA", "node_type_name": "Port", "node_type_slug": "port", "parent_node_type_name": "Kabupaten"}}, {"id": "ID-PORT-0166", "type": "Feature", "geometry": {"type": "Point", "coordinates": [110.2164, -2.5307]}, "properties": {"name": "KENDAWANGAN", "biome": null, "country": "INDONESIA", "trase_id": "ID-PORT-0166", "parent_name": "KETAPANG", "node_type_name": "Port", "node_type_slug": "port", "parent_node_type_name": "Kabupaten"}}, {"id": "ID-PORT-0167", "type": "Feature", "geometry": {"type": "Point", "coordinates": [124.8623, -8.998]}, "properties": {"name": "ATAPUPU", "biome": null, "country": "INDONESIA", "trase_id": "ID-PORT-0167", "parent_name": "BELU", "node_type_name": "Port", "node_type_slug": "port", "parent_node_type_name": "Kabupaten"}}, {"id": "ID-PORT-0168", "type": "Feature", "geometry": {"type": "Point", "coordinates": [103.9271, 1.1254]}, "properties": {"name": "SEKUPANG", "biome": null, "country": "INDONESIA", "trase_id": "ID-PORT-0168", "parent_name": "BATAM (KOTA)", "node_type_name": "Port", "node_type_slug": "port", "parent_node_type_name": "Kabupaten"}}, {"id": "ID-PORT-0169", "type": "Feature", "geometry": {"type": "Point", "coordinates": [123.5277, -10.1936]}, "properties": {"name": "TENAU", "biome": null, "country": "INDONESIA", "trase_id": "ID-PORT-0169", "parent_name": "KUPANG (KOTA)", "node_type_name": "Port", "node_type_slug": "port", "parent_node_type_name": "Kabupaten"}}, {"id": "ID-PORT-0170", "type": "Feature", "geometry": {"type": "Point", "coordinates": [117.4334, 2.1482]}, "properties": {"name": "BERAU (U)", "biome": null, "country": "INDONESIA", "trase_id": "ID-PORT-0170", "parent_name": "INDONESIA", "node_type_name": "Port", "node_type_slug": "port", "parent_node_type_name": "Country"}}]}