{"type": "FeatureCollection", "features": [{"id": "ID-PORT-0162", "type": "Feature", "geometry": {"type": "Point", "coordinates": [140.51358, -2.5697681]}, "properties": {"name": "JAYAPURA / SENTANI (U)", "biome": null, "country": "INDONESIA", "trase_id": "ID-PORT-0162", "parent_name": "INDONESIA", "node_type_name": "Port", "node_type_slug": "port", "parent_node_type_name": "Country"}}, {"id": "ID-PORT-0170", "type": "Feature", "geometry": {"type": "Point", "coordinates": [117.433433, 2.1481665]}, "properties": {"name": "BERAU (U)", "biome": null, "country": "INDONESIA", "trase_id": "ID-PORT-0170", "parent_name": "INDONESIA", "node_type_name": "Port", "node_type_slug": "port", "parent_node_type_name": "Country"}}, {"id": "ID-PORT-0015", "type": "Feature", "geometry": {"type": "Point", "coordinates": [115.208621, -8.74188]}, "properties": {"name": "BENOA", "biome": null, "country": "INDONESIA", "trase_id": "ID-PORT-0015", "parent_name": "DENPASAR (KOTA)", "node_type_name": "Port", "node_type_slug": "port", "parent_node_type_name": "Kabupaten"}}, {"id": "ID-PORT-0033", "type": "Feature", "geometry": {"type": "Point", "coordinates": [112.921709, -2.728481]}, "properties": {"name": "JETTY WILMAR - BAGENDANG", "biome": null, "country": "INDONESIA", "trase_id": "ID-PORT-0033", "parent_name": "KOTAWARINGIN TIMUR", "node_type_name": "Port", "node_type_slug": "port", "parent_node_type_name": "Kabupaten"}}, {"id": "ID-PORT-0099", "type": "Feature", "geometry": {"type": "Point", "coordinates": [112.964016, -2.537735]}, "properties": {"name": "SAMPIT", "biome": null, "country": "INDONESIA", "trase_id": "ID-PORT-0099", "parent_name": "KOTAWARINGIN TIMUR", "node_type_name": "Port", "node_type_slug": "port", "parent_node_type_name": "Kabupaten"}}, {"id": "ID-PORT-0038", "type": "Feature", "geometry": {"type": "Point", "coordinates": [112.748779, -2.114547]}, "properties": {"name": "KABUAU", "biome": null, "country": "INDONESIA", "trase_id": "ID-PORT-0038", "parent_name": "KOTAWARINGIN TIMUR", "node_type_name": "Port", "node_type_slug": "port", "parent_node_type_name": "Kabupaten"}}, {"id": "ID-PORT-0143", "type": "Feature", "geometry": {"type": "Point", "coordinates": [105.350658, -5.526294]}, "properties": {"name": "TARAHAN", "biome": null, "country": "INDONESIA", "trase_id": "ID-PORT-0143", "parent_name": "LAMPUNG SELATAN", "node_type_name": "Port", "node_type_slug": "port", "parent_node_type_name": "Kabupaten"}}, {"id": "ID-PORT-0080", "type": "Feature", "geometry": {"type": "Point", "coordinates": [112.800364, -2.029629]}, "properties": {"name": "PARENGGEAN", "biome": null, "country": "INDONESIA", "trase_id": "ID-PORT-0080", "parent_name": "KOTAWARINGIN TIMUR", "node_type_name": "Port", "node_type_slug": "port", "parent_node_type_name": "Kabupaten"}}, {"id": "ID-PORT-0163", "type": "Feature", "geometry": {"type": "Point", "coordinates": [113.945287, -2.22410779]}, "properties": {"name": "TJILIK  RIWUT (U)", "biome": null, "country": "INDONESIA", "trase_id": "ID-PORT-0163", "parent_name": "INDONESIA", "node_type_name": "Port", "node_type_slug": "port", "parent_node_type_name": "Country"}}, {"id": "ID-PORT-0071", "type": "Feature", "geometry": {"type": "Point", "coordinates": [112.742376, -2.302265]}, "properties": {"name": "PALANGAN", "biome": null, "country": "INDONESIA", "trase_id": "ID-PORT-0071", "parent_name": "KOTAWARINGIN TIMUR", "node_type_name": "Port", "node_type_slug": "port", "parent_node_type_name": "Kabupaten"}}, {"id": "ID-PORT-0003", "type": "Feature", "geometry": {"type": "Point", "coordinates": [112.930965, -2.719284]}, "properties": {"name": "BAGENDANG", "biome": null, "country": "INDONESIA", "trase_id": "ID-PORT-0003", "parent_name": "KOTAWARINGIN TIMUR", "node_type_name": "Port", "node_type_slug": "port", "parent_node_type_name": "Kabupaten"}}, {"id": "ID-PORT-0128", "type": "Feature", "geometry": {"type": "Point", "coordinates": [114.8952, -2.938226]}, "properties": {"name": "SUNGAI SALAI", "biome": null, "country": "INDONESIA", "trase_id": "ID-PORT-0128", "parent_name": "TAPIN", "node_type_name": "Port", "node_type_slug": "port", "parent_node_type_name": "Kabupaten"}}, {"id": "ID-PORT-0116", "type": "Feature", "geometry": {"type": "Point", "coordinates": [111.556085, 0.214002]}, "properties": {"name": "SINTANG", "biome": null, "country": "INDONESIA", "trase_id": "ID-PORT-0116", "parent_name": "SINTANG", "node_type_name": "Port", "node_type_slug": "port", "parent_node_type_name": "Kabupaten"}}, {"id": "ID-PORT-0062", "type": "Feature", "geometry": {"type": "Point", "coordinates": [110.173144, -1.096723]}, "properties": {"name": "MATAN JAYA", "biome": null, "country": "INDONESIA", "trase_id": "ID-PORT-0062", "parent_name": "KAYONG UTARA", "node_type_name": "Port", "node_type_slug": "port", "parent_node_type_name": "Kabupaten"}}, {"id": "ID-PORT-0165", "type": "Feature", "geometry": {"type": "Point", "coordinates": [109.95619, -1.1058155]}, "properties": {"name": "TELOK MELANO", "biome": null, "country": "INDONESIA", "trase_id": "ID-PORT-0165", "parent_name": "KAYONG UTARA", "node_type_name": "Port", "node_type_slug": "port", "parent_node_type_name": "Kabupaten"}}, {"id": "ID-PORT-0078", "type": "Feature", "geometry": {"type": "Point", "coordinates": [105.319277, -5.473688]}, "properties": {"name": "PANJANG", "biome": null, "country": "INDONESIA", "trase_id": "ID-PORT-0078", "parent_name": "BANDAR LAMPUNG (KOTA)", "node_type_name": "Port", "node_type_slug": "port", "parent_node_type_name": "Kabupaten"}}, {"id": "ID-PORT-0069", "type": "Feature", "geometry": {"type": "Point", "coordinates": [115.169115, -8.745783]}, "properties": {"name": "NGURAH RAI (U)", "biome": null, "country": "INDONESIA", "trase_id": "ID-PORT-0069", "parent_name": "BADUNG", "node_type_name": "Port", "node_type_slug": "port", "parent_node_type_name": "Kabupaten"}}, {"id": "ID-PORT-0098", "type": "Feature", "geometry": {"type": "Point", "coordinates": [98.785388, 1.729575]}, "properties": {"name": "SAMBAS", "biome": null, "country": "INDONESIA", "trase_id": "ID-PORT-0098", "parent_name": "SIBOLGA (KOTA)", "node_type_name": "Port", "node_type_slug": "port", "parent_node_type_name": "Kabupaten"}}, {"id": "ID-PORT-0118", "type": "Feature", "geometry": {"type": "Point", "coordinates": [106.655945, -6.126847]}, "properties": {"name": "SOEKARNO-HATTA (U)", "biome": null, "country": "INDONESIA", "trase_id": "ID-PORT-0118", "parent_name": "TANGERANG (KOTA)", "node_type_name": "Port", "node_type_slug": "port", "parent_node_type_name": "Kabupaten"}}, {"id": "ID-PORT-0002", "type": "Feature", "geometry": {"type": "Point", "coordinates": [140.417361, -6.648473]}, "properties": {"name": "ASIKE", "biome": null, "country": "INDONESIA", "trase_id": "ID-PORT-0002", "parent_name": "BOVEN DIGOEL", "node_type_name": "Port", "node_type_slug": "port", "parent_node_type_name": "Kabupaten"}}, {"id": "ID-PORT-0092", "type": "Feature", "geometry": {"type": "Point", "coordinates": [114.252284, -2.762076]}, "properties": {"name": "PULANG PISAU", "biome": null, "country": "INDONESIA", "trase_id": "ID-PORT-0092", "parent_name": "PULANG PISAU", "node_type_name": "Port", "node_type_slug": "port", "parent_node_type_name": "Kabupaten"}}, {"id": "ID-PORT-0011", "type": "Feature", "geometry": {"type": "Point", "coordinates": [105.735389, -1.629684]}, "properties": {"name": "BELINJU", "biome": null, "country": "INDONESIA", "trase_id": "ID-PORT-0011", "parent_name": "BANGKA", "node_type_name": "Port", "node_type_slug": "port", "parent_node_type_name": "Kabupaten"}}, {"id": "ID-PORT-0072", "type": "Feature", "geometry": {"type": "Point", "coordinates": [104.779359, -2.98059]}, "properties": {"name": "PALEMBANG", "biome": null, "country": "INDONESIA", "trase_id": "ID-PORT-0072", "parent_name": "PALEMBANG (KOTA)", "node_type_name": "Port", "node_type_slug": "port", "parent_node_type_name": "Kabupaten"}}, {"id": "ID-PORT-0097", "type": "Feature", "geometry": {"type": "Point", "coordinates": [117.178729, -0.561382]}, "properties": {"name": "SAMARINDA", "biome": null, "country": "INDONESIA", "trase_id": "ID-PORT-0097", "parent_name": "SAMARINDA (KOTA)", "node_type_name": "Port", "node_type_slug": "port", "parent_node_type_name": "Kabupaten"}}, {"id": "ID-PORT-0136", "type": "Feature", "geometry": {"type": "Point", "coordinates": [112.739964, -7.205179]}, "properties": {"name": "TANJUNG PERAK", "biome": null, "country": "INDONESIA", "trase_id": "ID-PORT-0136", "parent_name": "SURABAYA (KOTA)", "node_type_name": "Port", "node_type_slug": "port", "parent_node_type_name": "Kabupaten"}}, {"id": "ID-PORT-0121", "type": "Feature", "geometry": {"type": "Point", "coordinates": [104.703491, -2.896525]}, "properties": {"name": "SULTAN MAHMUD BADARUDDIN (U)", "biome": null, "country": "INDONESIA", "trase_id": "ID-PORT-0121", "parent_name": "PALEMBANG (KOTA)", "node_type_name": "Port", "node_type_slug": "port", "parent_node_type_name": "Kabupaten"}}, {"id": "ID-PORT-0106", "type": "Feature", "geometry": {"type": "Point", "coordinates": [104.832087, -2.993988]}, "properties": {"name": "SEI LAIS PALEMBANG", "biome": null, "country": "INDONESIA", "trase_id": "ID-PORT-0106", "parent_name": "PALEMBANG (KOTA)", "node_type_name": "Port", "node_type_slug": "port", "parent_node_type_name": "Kabupaten"}}, {"id": "ID-PORT-0023", "type": "Feature", "geometry": {"type": "Point", "coordinates": [121.42109, 1.19195]}, "properties": {"name": "BUOL", "biome": null, "country": "INDONESIA", "trase_id": "ID-PORT-0023", "parent_name": "BUOL", "node_type_name": "Port", "node_type_slug": "port", "parent_node_type_name": "Kabupaten"}}, {"id": "ID-PORT-0044", "type": "Feature", "geometry": {"type": "Point", "coordinates": [121.578977, -4.050335]}, "properties": {"name": "KOLAKA", "biome": null, "country": "INDONESIA", "trase_id": "ID-PORT-0044", "parent_name": "KOLAKA", "node_type_name": "Port", "node_type_slug": "port", "parent_node_type_name": "Kabupaten"}}, {"id": "ID-PORT-0142", "type": "Feature", "geometry": {"type": "Point", "coordinates": [104.217573, 1.076211]}, "properties": {"name": "TANJUNG UBAN", "biome": null, "country": "INDONESIA", "trase_id": "ID-PORT-0142", "parent_name": "BINTAN", "node_type_name": "Port", "node_type_slug": "port", "parent_node_type_name": "Kabupaten"}}, {"id": "ID-PORT-0146", "type": "Feature", "geometry": {"type": "Point", "coordinates": [104.649238, 1.052934]}, "properties": {"name": "TELUK BAKAU", "biome": null, "country": "INDONESIA", "trase_id": "ID-PORT-0146", "parent_name": "BINTAN", "node_type_name": "Port", "node_type_slug": "port", "parent_node_type_name": "Kabupaten"}}, {"id": "ID-PORT-0113", "type": "Feature", "geometry": {"type": "Point", "coordinates": [116.224627, -2.524326]}, "properties": {"name": "SELABAK", "biome": null, "country": "INDONESIA", "trase_id": "ID-PORT-0113", "parent_name": "KOTABARU", "node_type_name": "Port", "node_type_slug": "port", "parent_node_type_name": "Kabupaten"}}, {"id": "ID-PORT-0103", "type": "Feature", "geometry": {"type": "Point", "coordinates": [117.013467, -0.283296]}, "properties": {"name": "SEBULU", "biome": null, "country": "INDONESIA", "trase_id": "ID-PORT-0103", "parent_name": "KUTAI KARTANEGARA", "node_type_name": "Port", "node_type_slug": "port", "parent_node_type_name": "Kabupaten"}}, {"id": "ID-PORT-0095", "type": "Feature", "geometry": {"type": "Point", "coordinates": [102.334432, -0.352039]}, "properties": {"name": "RENGAT/ JAPURA (U)", "biome": null, "country": "INDONESIA", "trase_id": "ID-PORT-0095", "parent_name": "INDRAGIRI HULU", "node_type_name": "Port", "node_type_slug": "port", "parent_node_type_name": "Kabupaten"}}, {"id": "ID-PORT-0045", "type": "Feature", "geometry": {"type": "Point", "coordinates": [102.691625, -0.47137]}, "properties": {"name": "KUALA CENAKU", "biome": null, "country": "INDONESIA", "trase_id": "ID-PORT-0045", "parent_name": "INDRAGIRI HULU", "node_type_name": "Port", "node_type_slug": "port", "parent_node_type_name": "Kabupaten"}}, {"id": "ID-PORT-0032", "type": "Feature", "geometry": {"type": "Point", "coordinates": [110.374637, -6.96689]}, "properties": {"name": "JENDERAL ACHMAD YANI (U)", "biome": null, "country": "INDONESIA", "trase_id": "ID-PORT-0032", "parent_name": "SEMARANG (KOTA)", "node_type_name": "Port", "node_type_slug": "port", "parent_node_type_name": "Kabupaten"}}, {"id": "ID-PORT-0016", "type": "Feature", "geometry": {"type": "Point", "coordinates": [125.160055, 1.439906]}, "properties": {"name": "BITUNG", "biome": null, "country": "INDONESIA", "trase_id": "ID-PORT-0016", "parent_name": "BITUNG (KOTA)", "node_type_name": "Port", "node_type_slug": "port", "parent_node_type_name": "Kabupaten"}}, {"id": "ID-PORT-0086", "type": "Feature", "geometry": {"type": "Point", "coordinates": [116.796834, -0.284984]}, "properties": {"name": "PMM JETTY, MUARA KAMAN", "biome": null, "country": "INDONESIA", "trase_id": "ID-PORT-0086", "parent_name": "KUTAI KARTANEGARA", "node_type_name": "Port", "node_type_slug": "port", "parent_node_type_name": "Kabupaten"}}, {"id": "ID-PORT-0119", "type": "Feature", "geometry": {"type": "Point", "coordinates": [116.187967, -3.268473]}, "properties": {"name": "STAGEN", "biome": null, "country": "INDONESIA", "trase_id": "ID-PORT-0119", "parent_name": "KOTABARU", "node_type_name": "Port", "node_type_slug": "port", "parent_node_type_name": "Kabupaten"}}, {"id": "ID-PORT-0144", "type": "Feature", "geometry": {"type": "Point", "coordinates": [116.117956, -3.271603]}, "properties": {"name": "TARJUN", "biome": null, "country": "INDONESIA", "trase_id": "ID-PORT-0144", "parent_name": "KOTABARU", "node_type_name": "Port", "node_type_slug": "port", "parent_node_type_name": "Kabupaten"}}, {"id": "ID-PORT-0073", "type": "Feature", "geometry": {"type": "Point", "coordinates": [116.337235, -2.434403]}, "properties": {"name": "PAMUKAN", "biome": null, "country": "INDONESIA", "trase_id": "ID-PORT-0073", "parent_name": "KOTABARU", "node_type_name": "Port", "node_type_slug": "port", "parent_node_type_name": "Kabupaten"}}, {"id": "ID-PORT-0094", "type": "Feature", "geometry": {"type": "Point", "coordinates": [102.549042, -0.3745]}, "properties": {"name": "RENGAT", "biome": null, "country": "INDONESIA", "trase_id": "ID-PORT-0094", "parent_name": "INDRAGIRI HULU", "node_type_name": "Port", "node_type_slug": "port", "parent_node_type_name": "Kabupaten"}}, {"id": "ID-PORT-0054", "type": "Feature", "geometry": {"type": "Point", "coordinates": [117.059463, -0.587479]}, "properties": {"name": "LOA DURI", "biome": null, "country": "INDONESIA", "trase_id": "ID-PORT-0054", "parent_name": "KUTAI KARTANEGARA", "node_type_name": "Port", "node_type_slug": "port", "parent_node_type_name": "Kabupaten"}}, {"id": "ID-PORT-0126", "type": "Feature", "geometry": {"type": "Point", "coordinates": [117.256954, -0.571045]}, "properties": {"name": "SUNGAI MERIAM", "biome": null, "country": "INDONESIA", "trase_id": "ID-PORT-0126", "parent_name": "KUTAI KARTANEGARA", "node_type_name": "Port", "node_type_slug": "port", "parent_node_type_name": "Kabupaten"}}, {"id": "ID-PORT-0134", "type": "Feature", "geometry": {"type": "Point", "coordinates": [116.839479, -0.321293]}, "properties": {"name": "TANJUNG KARAS, BENUA PUHUN", "biome": null, "country": "INDONESIA", "trase_id": "ID-PORT-0134", "parent_name": "KUTAI KARTANEGARA", "node_type_name": "Port", "node_type_slug": "port", "parent_node_type_name": "Kabupaten"}}, {"id": "ID-PORT-0114", "type": "Feature", "geometry": {"type": "Point", "coordinates": [110.430799, -6.950846]}, "properties": {"name": "SEMARANG", "biome": null, "country": "INDONESIA", "trase_id": "ID-PORT-0114", "parent_name": "SEMARANG (KOTA)", "node_type_name": "Port", "node_type_slug": "port", "parent_node_type_name": "Kabupaten"}}, {"id": "ID-PORT-0151", "type": "Feature", "geometry": {"type": "Point", "coordinates": [119.546923, -5.078288]}, "properties": {"name": "UJUNG PANDANG / HASANUDDIN (U)", "biome": null, "country": "INDONESIA", "trase_id": "ID-PORT-0151", "parent_name": "MAROS", "node_type_name": "Port", "node_type_slug": "port", "parent_node_type_name": "Kabupaten"}}, {"id": "ID-PORT-0068", "type": "Feature", "geometry": {"type": "Point", "coordinates": [111.880471, 1.0273]}, "properties": {"name": "NANGA BADAU", "biome": null, "country": "INDONESIA", "trase_id": "ID-PORT-0068", "parent_name": "KAPUAS HULU", "node_type_name": "Port", "node_type_slug": "port", "parent_node_type_name": "Kabupaten"}}, {"id": "ID-PORT-0093", "type": "Feature", "geometry": {"type": "Point", "coordinates": [117.858703, 1.196321]}, "properties": {"name": "RANTAU BAHAN, SANGKULIRANG", "biome": null, "country": "INDONESIA", "trase_id": "ID-PORT-0093", "parent_name": "KUTAI TIMUR", "node_type_name": "Port", "node_type_slug": "port", "parent_node_type_name": "Kabupaten"}}, {"id": "ID-PORT-0066", "type": "Feature", "geometry": {"type": "Point", "coordinates": [116.775323, 0.517576]}, "properties": {"name": "MUARA BENGKAL", "biome": null, "country": "INDONESIA", "trase_id": "ID-PORT-0066", "parent_name": "KUTAI TIMUR", "node_type_name": "Port", "node_type_slug": "port", "parent_node_type_name": "Kabupaten"}}, {"id": "ID-PORT-0081", "type": "Feature", "geometry": {"type": "Point", "coordinates": [117.810065, 1.224372]}, "properties": {"name": "PENGADAN", "biome": null, "country": "INDONESIA", "trase_id": "ID-PORT-0081", "parent_name": "KUTAI TIMUR", "node_type_name": "Port", "node_type_slug": "port", "parent_node_type_name": "Kabupaten"}}, {"id": "ID-PORT-0052", "type": "Feature", "geometry": {"type": "Point", "coordinates": [117.321499, 2.092419]}, "properties": {"name": "LABANAN", "biome": null, "country": "INDONESIA", "trase_id": "ID-PORT-0052", "parent_name": "BERAU", "node_type_name": "Port", "node_type_slug": "port", "parent_node_type_name": "Kabupaten"}}, {"id": "ID-PORT-0138", "type": "Feature", "geometry": {"type": "Point", "coordinates": [117.494536, 2.157423]}, "properties": {"name": "TANJUNG REDEP", "biome": null, "country": "INDONESIA", "trase_id": "ID-PORT-0138", "parent_name": "BERAU", "node_type_name": "Port", "node_type_slug": "port", "parent_node_type_name": "Kabupaten"}}, {"id": "ID-PORT-0169", "type": "Feature", "geometry": {"type": "Point", "coordinates": [123.5277334, -10.19360069]}, "properties": {"name": "TENAU", "biome": null, "country": "INDONESIA", "trase_id": "ID-PORT-0169", "parent_name": "KUPANG (KOTA)", "node_type_name": "Port", "node_type_slug": "port", "parent_node_type_name": "Kabupaten"}}, {"id": "ID-PORT-0057", "type": "Feature", "geometry": {"type": "Point", "coordinates": [117.98282, 0.919809]}, "properties": {"name": "MALOY", "biome": null, "country": "INDONESIA", "trase_id": "ID-PORT-0057", "parent_name": "KUTAI TIMUR", "node_type_name": "Port", "node_type_slug": "port", "parent_node_type_name": "Kabupaten"}}, {"id": "ID-PORT-0088", "type": "Feature", "geometry": {"type": "Point", "coordinates": [109.311302, 0.003925]}, "properties": {"name": "PONTIANAK", "biome": null, "country": "INDONESIA", "trase_id": "ID-PORT-0088", "parent_name": "PONTIANAK (KOTA)", "node_type_name": "Port", "node_type_slug": "port", "parent_node_type_name": "Kabupaten"}}, {"id": "ID-PORT-0082", "type": "Feature", "geometry": {"type": "Point", "coordinates": [104.880186, -2.959002]}, "properties": {"name": "PERAJEN", "biome": null, "country": "INDONESIA", "trase_id": "ID-PORT-0082", "parent_name": "BANYUASIN", "node_type_name": "Port", "node_type_slug": "port", "parent_node_type_name": "Kabupaten"}}, {"id": "ID-PORT-0102", "type": "Feature", "geometry": {"type": "Point", "coordinates": [117.277091, 4.081719]}, "properties": {"name": "SEBAKIS", "biome": null, "country": "INDONESIA", "trase_id": "ID-PORT-0102", "parent_name": "NUNUKAN", "node_type_name": "Port", "node_type_slug": "port", "parent_node_type_name": "Kabupaten"}}, {"id": "ID-PORT-0132", "type": "Feature", "geometry": {"type": "Point", "coordinates": [116.15139, -1.823016]}, "properties": {"name": "TANAH MERAH/GROGOT", "biome": null, "country": "INDONESIA", "trase_id": "ID-PORT-0132", "parent_name": "PASER", "node_type_name": "Port", "node_type_slug": "port", "parent_node_type_name": "Kabupaten"}}, {"id": "ID-PORT-0105", "type": "Feature", "geometry": {"type": "Point", "coordinates": [116.126387, -2.221516]}, "properties": {"name": "SEI KERANG", "biome": null, "country": "INDONESIA", "trase_id": "ID-PORT-0105", "parent_name": "PASER", "node_type_name": "Port", "node_type_slug": "port", "parent_node_type_name": "Kabupaten"}}, {"id": "ID-PORT-0087", "type": "Feature", "geometry": {"type": "Point", "coordinates": [116.250691, -1.805249]}, "properties": {"name": "PONDONG", "biome": null, "country": "INDONESIA", "trase_id": "ID-PORT-0087", "parent_name": "PASER", "node_type_name": "Port", "node_type_slug": "port", "parent_node_type_name": "Kabupaten"}}, {"id": "ID-PORT-0059", "type": "Feature", "geometry": {"type": "Point", "coordinates": [108.289269, -2.8479]}, "properties": {"name": "MANGGAR", "biome": null, "country": "INDONESIA", "trase_id": "ID-PORT-0059", "parent_name": "BELITUNG TIMUR", "node_type_name": "Port", "node_type_slug": "port", "parent_node_type_name": "Kabupaten"}}, {"id": "ID-PORT-0042", "type": "Feature", "geometry": {"type": "Point", "coordinates": [116.668566, 3.628778]}, "properties": {"name": "KELAPIS", "biome": null, "country": "INDONESIA", "trase_id": "ID-PORT-0042", "parent_name": "MALINAU", "node_type_name": "Port", "node_type_slug": "port", "parent_node_type_name": "Kabupaten"}}, {"id": "ID-PORT-0139", "type": "Feature", "geometry": {"type": "Point", "coordinates": [107.892957, -3.092588]}, "properties": {"name": "TANJUNG RESING", "biome": null, "country": "INDONESIA", "trase_id": "ID-PORT-0139", "parent_name": "BELITUNG TIMUR", "node_type_name": "Port", "node_type_slug": "port", "parent_node_type_name": "Kabupaten"}}, {"id": "ID-PORT-0048", "type": "Feature", "geometry": {"type": "Point", "coordinates": [99.440756, 3.369551]}, "properties": {"name": "KUALA TANJUNG", "biome": null, "country": "INDONESIA", "trase_id": "ID-PORT-0048", "parent_name": "BATU BARA", "node_type_name": "Port", "node_type_slug": "port", "parent_node_type_name": "Kabupaten"}}, {"id": "ID-PORT-0060", "type": "Feature", "geometry": {"type": "Point", "coordinates": [134.075487, -0.867643]}, "properties": {"name": "MANOKWARI", "biome": null, "country": "INDONESIA", "trase_id": "ID-PORT-0060", "parent_name": "MANOKWARI", "node_type_name": "Port", "node_type_slug": "port", "parent_node_type_name": "Kabupaten"}}, {"id": "ID-PORT-0160", "type": "Feature", "geometry": {"type": "Point", "coordinates": [117.595, 3.282]}, "properties": {"name": "LINGKAS TARAKAN", "biome": null, "country": "INDONESIA", "trase_id": "ID-PORT-0160", "parent_name": "TARAKAN (KOTA)", "node_type_name": "Port", "node_type_slug": "port", "parent_node_type_name": "Kabupaten"}}, {"id": "ID-PORT-0100", "type": "Feature", "geometry": {"type": "Point", "coordinates": [110.132783, -0.052007]}, "properties": {"name": "SANGGAU", "biome": null, "country": "INDONESIA", "trase_id": "ID-PORT-0100", "parent_name": "SANGGAU", "node_type_name": "Port", "node_type_slug": "port", "parent_node_type_name": "Kabupaten"}}, {"id": "ID-PORT-0107", "type": "Feature", "geometry": {"type": "Point", "coordinates": [110.339145, -0.102186]}, "properties": {"name": "SEI MAYAM", "biome": null, "country": "INDONESIA", "trase_id": "ID-PORT-0107", "parent_name": "SANGGAU", "node_type_name": "Port", "node_type_slug": "port", "parent_node_type_name": "Kabupaten"}}, {"id": "ID-PORT-0164", "type": "Feature", "geometry": {"type": "Point", "coordinates": [95.5719205, 4.6313406]}, "properties": {"name": "CALANG", "biome": null, "country": "INDONESIA", "trase_id": "ID-PORT-0164", "parent_name": "ACEH JAYA", "node_type_name": "Port", "node_type_slug": "port", "parent_node_type_name": "Kabupaten"}}, {"id": "ID-PORT-0014", "type": "Feature", "geometry": {"type": "Point", "coordinates": [102.304581, -3.907269]}, "properties": {"name": "BENGKULU", "biome": null, "country": "INDONESIA", "trase_id": "ID-PORT-0014", "parent_name": "BENGKULU (KOTA)", "node_type_name": "Port", "node_type_slug": "port", "parent_node_type_name": "Kabupaten"}}, {"id": "ID-PORT-0145", "type": "Feature", "geometry": {"type": "Point", "coordinates": [110.086638, -0.039571]}, "properties": {"name": "TAYAN", "biome": null, "country": "INDONESIA", "trase_id": "ID-PORT-0145", "parent_name": "SANGGAU", "node_type_name": "Port", "node_type_slug": "port", "parent_node_type_name": "Kabupaten"}}, {"id": "ID-PORT-0063", "type": "Feature", "geometry": {"type": "Point", "coordinates": [110.286366, -0.106542]}, "properties": {"name": "MELIAU", "biome": null, "country": "INDONESIA", "trase_id": "ID-PORT-0063", "parent_name": "SANGGAU", "node_type_name": "Port", "node_type_slug": "port", "parent_node_type_name": "Kabupaten"}}, {"id": "ID-PORT-0021", "type": "Feature", "geometry": {"type": "Point", "coordinates": [111.802226, -2.625529]}, "properties": {"name": "BUMI HARJO", "biome": null, "country": "INDONESIA", "trase_id": "ID-PORT-0021", "parent_name": "KOTAWARINGIN BARAT", "node_type_name": "Port", "node_type_slug": "port", "parent_node_type_name": "Kabupaten"}}, {"id": "ID-PORT-0147", "type": "Feature", "geometry": {"type": "Point", "coordinates": [100.372746, -0.996674]}, "properties": {"name": "TELUK BAYUR", "biome": null, "country": "INDONESIA", "trase_id": "ID-PORT-0147", "parent_name": "PADANG (KOTA)", "node_type_name": "Port", "node_type_slug": "port", "parent_node_type_name": "Kabupaten"}}, {"id": "ID-PORT-0076", "type": "Feature", "geometry": {"type": "Point", "coordinates": [102.07854, 1.490045]}, "properties": {"name": "PANGKALAN BATANG", "biome": null, "country": "INDONESIA", "trase_id": "ID-PORT-0076", "parent_name": "BENGKALIS", "node_type_name": "Port", "node_type_slug": "port", "parent_node_type_name": "Kabupaten"}}, {"id": "ID-PORT-0050", "type": "Feature", "geometry": {"type": "Point", "coordinates": [111.753682, -2.716315]}, "properties": {"name": "KUMAI", "biome": null, "country": "INDONESIA", "trase_id": "ID-PORT-0050", "parent_name": "KOTAWARINGIN BARAT", "node_type_name": "Port", "node_type_slug": "port", "parent_node_type_name": "Kabupaten"}}, {"id": "ID-PORT-0024", "type": "Feature", "geometry": {"type": "Point", "coordinates": [105.876755, -3.41197]}, "properties": {"name": "CENGAL", "biome": null, "country": "INDONESIA", "trase_id": "ID-PORT-0024", "parent_name": "OGAN KOMERING ILIR", "node_type_name": "Port", "node_type_slug": "port", "parent_node_type_name": "Kabupaten"}}, {"id": "ID-PORT-0075", "type": "Feature", "geometry": {"type": "Point", "coordinates": [111.869323, -2.49498]}, "properties": {"name": "PANGKALAN BANTENG", "biome": null, "country": "INDONESIA", "trase_id": "ID-PORT-0075", "parent_name": "KOTAWARINGIN BARAT", "node_type_name": "Port", "node_type_slug": "port", "parent_node_type_name": "Kabupaten"}}, {"id": "ID-PORT-0029", "type": "Feature", "geometry": {"type": "Point", "coordinates": [106.884771, -6.266185]}, "properties": {"name": "HALIM PERDANA KUSUMA (U)", "biome": null, "country": "INDONESIA", "trase_id": "ID-PORT-0029", "parent_name": "JAKARTA TIMUR (KOTA)", "node_type_name": "Port", "node_type_slug": "port", "parent_node_type_name": "Kabupaten"}}, {"id": "ID-PORT-0131", "type": "Feature", "geometry": {"type": "Point", "coordinates": [103.660059, -1.534039]}, "properties": {"name": "TALANG DUKU", "biome": null, "country": "INDONESIA", "trase_id": "ID-PORT-0131", "parent_name": "MUARO JAMBI", "node_type_name": "Port", "node_type_slug": "port", "parent_node_type_name": "Kabupaten"}}, {"id": "ID-PORT-0053", "type": "Feature", "geometry": {"type": "Point", "coordinates": [122.294977, -3.294961]}, "properties": {"name": "LAMERURU", "biome": null, "country": "INDONESIA", "trase_id": "ID-PORT-0053", "parent_name": "KONAWE UTARA", "node_type_name": "Port", "node_type_slug": "port", "parent_node_type_name": "Kabupaten"}}, {"id": "ID-PORT-0046", "type": "Feature", "geometry": {"type": "Point", "coordinates": [114.255361, -3.345556]}, "properties": {"name": "KUALA KAPUAS", "biome": null, "country": "INDONESIA", "trase_id": "ID-PORT-0046", "parent_name": "KAPUAS", "node_type_name": "Port", "node_type_slug": "port", "parent_node_type_name": "Kabupaten"}}, {"id": "ID-PORT-0028", "type": "Feature", "geometry": {"type": "Point", "coordinates": [112.661683, -7.154045]}, "properties": {"name": "GRESIK", "biome": null, "country": "INDONESIA", "trase_id": "ID-PORT-0028", "parent_name": "GRESIK", "node_type_name": "Port", "node_type_slug": "port", "parent_node_type_name": "Kabupaten"}}, {"id": "ID-PORT-0049", "type": "Feature", "geometry": {"type": "Point", "coordinates": [103.460458, -0.81301]}, "properties": {"name": "KUALA TUNGKAL", "biome": null, "country": "INDONESIA", "trase_id": "ID-PORT-0049", "parent_name": "TANJUNG JABUNG BARAT", "node_type_name": "Port", "node_type_slug": "port", "parent_node_type_name": "Kabupaten"}}, {"id": "ID-PORT-0047", "type": "Feature", "geometry": {"type": "Point", "coordinates": [98.876771, 3.635864]}, "properties": {"name": "KUALA NAMU (U)", "biome": null, "country": "INDONESIA", "trase_id": "ID-PORT-0047", "parent_name": "DELI SERDANG", "node_type_name": "Port", "node_type_slug": "port", "parent_node_type_name": "Kabupaten"}}, {"id": null, "type": "Feature", "geometry": {"type": "Point", "coordinates": [99.86046546, 3.021941105]}, "properties": {"name": "TANJUNG BALAI ASAHAN", "biome": null, "country": "INDONESIA", "trase_id": null, "parent_name": "ASAHAN", "node_type_name": "Port", "node_type_slug": "port", "parent_node_type_name": "Kabupaten"}}, {"id": "ID-PORT-0152", "type": "Feature", "geometry": {"type": "Point", "coordinates": [109.28191, 0.012053]}, "properties": {"name": "WAJOK", "biome": null, "country": "INDONESIA", "trase_id": "ID-PORT-0152", "parent_name": "MEMPAWAH", "node_type_name": "Port", "node_type_slug": "port", "parent_node_type_name": "Kabupaten"}}, {"id": "ID-PORT-0112", "type": "Feature", "geometry": {"type": "Point", "coordinates": [99.8009, 2.986249]}, "properties": {"name": "SEKUMULTI NABATI ASAHAN , PTNG", "biome": null, "country": "INDONESIA", "trase_id": "ID-PORT-0112", "parent_name": "ASAHAN", "node_type_name": "Port", "node_type_slug": "port", "parent_node_type_name": "Kabupaten"}}, {"id": "ID-PORT-175", "type": "Feature", "geometry": {"type": "Point", "coordinates": [95.41697337, 5.517951677]}, "properties": {"name": "BLANG BINTANG", "biome": null, "country": "INDONESIA", "trase_id": "ID-PORT-175", "parent_name": "ACEH BESAR", "node_type_name": "Port", "node_type_slug": "port", "parent_node_type_name": "Kabupaten"}}, {"id": "ID-PORT-0109", "type": "Feature", "geometry": {"type": "Point", "coordinates": [111.192286, 0.08078]}, "properties": {"name": "SEKADAU", "biome": null, "country": "INDONESIA", "trase_id": "ID-PORT-0109", "parent_name": "SEKADAU", "node_type_name": "Port", "node_type_slug": "port", "parent_node_type_name": "Kabupaten"}}, {"id": "ID-PORT-0039", "type": "Feature", "geometry": {"type": "Point", "coordinates": [116.788325, -1.178946]}, "properties": {"name": "KARIANGAU", "biome": null, "country": "INDONESIA", "trase_id": "ID-PORT-0039", "parent_name": "BALIKPAPAN (KOTA)", "node_type_name": "Port", "node_type_slug": "port", "parent_node_type_name": "Kabupaten"}}, {"id": "ID-PORT-0005", "type": "Feature", "geometry": {"type": "Point", "coordinates": [116.819509, -1.254855]}, "properties": {"name": "BALIKPAPAN", "biome": null, "country": "INDONESIA", "trase_id": "ID-PORT-0005", "parent_name": "BALIKPAPAN (KOTA)", "node_type_name": "Port", "node_type_slug": "port", "parent_node_type_name": "Kabupaten"}}, {"id": "ID-PORT-0020", "type": "Feature", "geometry": {"type": "Point", "coordinates": [116.716606, -1.216128]}, "properties": {"name": "BULUMINUNG", "biome": null, "country": "INDONESIA", "trase_id": "ID-PORT-0020", "parent_name": "PENAJAM PASER UTARA", "node_type_name": "Port", "node_type_slug": "port", "parent_node_type_name": "Kabupaten"}}, {"id": "ID-PORT-0012", "type": "Feature", "geometry": {"type": "Point", "coordinates": [111.143938, 0.101743]}, "properties": {"name": "BELITANG", "biome": null, "country": "INDONESIA", "trase_id": "ID-PORT-0012", "parent_name": "SEKADAU", "node_type_name": "Port", "node_type_slug": "port", "parent_node_type_name": "Kabupaten"}}, {"id": "ID-PORT-0043", "type": "Feature", "geometry": {"type": "Point", "coordinates": [116.735916, -1.108102]}, "properties": {"name": "KENANGAN", "biome": null, "country": "INDONESIA", "trase_id": "ID-PORT-0043", "parent_name": "BALIKPAPAN (KOTA)", "node_type_name": "Port", "node_type_slug": "port", "parent_node_type_name": "Kabupaten"}}, {"id": "ID-PORT-0167", "type": "Feature", "geometry": {"type": "Point", "coordinates": [124.86226, -8.9980191]}, "properties": {"name": "ATAPUPU", "biome": null, "country": "INDONESIA", "trase_id": "ID-PORT-0167", "parent_name": "BELU", "node_type_name": "Port", "node_type_slug": "port", "parent_node_type_name": "Kabupaten"}}, {"id": "ID-PORT-0007", "type": "Feature", "geometry": {"type": "Point", "coordinates": [104.001437, 1.169703]}, "properties": {"name": "BATU AMPAR", "biome": null, "country": "INDONESIA", "trase_id": "ID-PORT-0007", "parent_name": "BATAM (KOTA)", "node_type_name": "Port", "node_type_slug": "port", "parent_node_type_name": "Kabupaten"}}, {"id": "ID-PORT-0079", "type": "Feature", "geometry": {"type": "Point", "coordinates": [119.85707, -0.710071]}, "properties": {"name": "PANTOLOAN", "biome": null, "country": "INDONESIA", "trase_id": "ID-PORT-0079", "parent_name": "PALU (KOTA)", "node_type_name": "Port", "node_type_slug": "port", "parent_node_type_name": "Kabupaten"}}, {"id": "ID-PORT-0140", "type": "Feature", "geometry": {"type": "Point", "coordinates": [120.202793, -2.98676]}, "properties": {"name": "TANJUNG RINGGIT", "biome": null, "country": "INDONESIA", "trase_id": "ID-PORT-0140", "parent_name": "PALOPO (KOTA)", "node_type_name": "Port", "node_type_slug": "port", "parent_node_type_name": "Kabupaten"}}, {"id": "ID-PORT-0036", "type": "Feature", "geometry": {"type": "Point", "coordinates": [104.133998, 1.072921]}, "properties": {"name": "KABIL", "biome": null, "country": "INDONESIA", "trase_id": "ID-PORT-0036", "parent_name": "BATAM (KOTA)", "node_type_name": "Port", "node_type_slug": "port", "parent_node_type_name": "Kabupaten"}}, {"id": "ID-PORT-0130", "type": "Feature", "geometry": {"type": "Point", "coordinates": [112.793154, -7.375698]}, "properties": {"name": "SURABAYA /JUANDA (U)", "biome": null, "country": "INDONESIA", "trase_id": "ID-PORT-0130", "parent_name": "SIDOARJO", "node_type_name": "Port", "node_type_slug": "port", "parent_node_type_name": "Kabupaten"}}, {"id": "ID-PORT-0168", "type": "Feature", "geometry": {"type": "Point", "coordinates": [103.9271279, 1.125439657]}, "properties": {"name": "SEKUPANG", "biome": null, "country": "INDONESIA", "trase_id": "ID-PORT-0168", "parent_name": "BATAM (KOTA)", "node_type_name": "Port", "node_type_slug": "port", "parent_node_type_name": "Kabupaten"}}, {"id": "ID-PORT-0061", "type": "Feature", "geometry": {"type": "Point", "coordinates": [114.764373, -2.977718]}, "properties": {"name": "MARABAHAN", "biome": null, "country": "INDONESIA", "trase_id": "ID-PORT-0061", "parent_name": "BARITO KUALA", "node_type_name": "Port", "node_type_slug": "port", "parent_node_type_name": "Kabupaten"}}, {"id": "ID-PORT-0153", "type": "Feature", "geometry": {"type": "Point", "coordinates": [110.434485, -7.786392]}, "properties": {"name": "YOGYAKARTA / ADI SUCIPTO (U)", "biome": null, "country": "INDONESIA", "trase_id": "ID-PORT-0153", "parent_name": "SLEMAN", "node_type_name": "Port", "node_type_slug": "port", "parent_node_type_name": "Kabupaten"}}, {"id": "ID-PORT-0148", "type": "Feature", "geometry": {"type": "Point", "coordinates": [102.921506, -0.516567]}, "properties": {"name": "TEMBILAHAN", "biome": null, "country": "INDONESIA", "trase_id": "ID-PORT-0148", "parent_name": "INDRAGIRI HILIR", "node_type_name": "Port", "node_type_slug": "port", "parent_node_type_name": "Kabupaten"}}, {"id": "ID-PORT-0122", "type": "Feature", "geometry": {"type": "Point", "coordinates": [103.642812, -1.63314]}, "properties": {"name": "SULTAN THAHA (U)", "biome": null, "country": "INDONESIA", "trase_id": "ID-PORT-0122", "parent_name": "JAMBI (KOTA)", "node_type_name": "Port", "node_type_slug": "port", "parent_node_type_name": "Kabupaten"}}, {"id": "ID-PORT-0025", "type": "Feature", "geometry": {"type": "Point", "coordinates": [108.569511, -6.710588]}, "properties": {"name": "CIREBON", "biome": null, "country": "INDONESIA", "trase_id": "ID-PORT-0025", "parent_name": "CIREBON (KOTA)", "node_type_name": "Port", "node_type_slug": "port", "parent_node_type_name": "Kabupaten"}}, {"id": "ID-PORT-0089", "type": "Feature", "geometry": {"type": "Point", "coordinates": [103.158437, 0.127213]}, "properties": {"name": "PT. THIP NYATO", "biome": null, "country": "INDONESIA", "trase_id": "ID-PORT-0089", "parent_name": "INDRAGIRI HILIR", "node_type_name": "Port", "node_type_slug": "port", "parent_node_type_name": "Kabupaten"}}, {"id": "ID-PORT-0090", "type": "Feature", "geometry": {"type": "Point", "coordinates": [103.158437, 0.127213]}, "properties": {"name": "PT. THIP NYATO PULAI", "biome": null, "country": "INDONESIA", "trase_id": "ID-PORT-0090", "parent_name": "INDRAGIRI HILIR", "node_type_name": "Port", "node_type_slug": "port", "parent_node_type_name": "Kabupaten"}}, {"id": "ID-PORT-0091", "type": "Feature", "geometry": {"type": "Point", "coordinates": [103.167297, 0.213484]}, "properties": {"name": "PT. THIP PULAI", "biome": null, "country": "INDONESIA", "trase_id": "ID-PORT-0091", "parent_name": "INDRAGIRI HILIR", "node_type_name": "Port", "node_type_slug": "port", "parent_node_type_name": "Kabupaten"}}, {"id": "ID-PORT-0009", "type": "Feature", "geometry": {"type": "Point", "coordinates": [102.705261, -0.480218]}, "properties": {"name": "BAYAS", "biome": null, "country": "INDONESIA", "trase_id": "ID-PORT-0009", "parent_name": "INDRAGIRI HILIR", "node_type_name": "Port", "node_type_slug": "port", "parent_node_type_name": "Kabupaten"}}, {"id": "ID-PORT-0070", "type": "Feature", "geometry": {"type": "Point", "coordinates": [103.289255, 0.160866]}, "properties": {"name": "NYATO/PULAI", "biome": null, "country": "INDONESIA", "trase_id": "ID-PORT-0070", "parent_name": "INDRAGIRI HILIR", "node_type_name": "Port", "node_type_slug": "port", "parent_node_type_name": "Kabupaten"}}, {"id": "ID-PORT-0161", "type": "Feature", "geometry": {"type": "Point", "coordinates": [103.384, -0.504504]}, "properties": {"name": "KUALA ENOK", "biome": null, "country": "INDONESIA", "trase_id": "ID-PORT-0161", "parent_name": "INDRAGIRI HILIR", "node_type_name": "Port", "node_type_slug": "port", "parent_node_type_name": "Kabupaten"}}, {"id": "ID-PORT-0125", "type": "Feature", "geometry": {"type": "Point", "coordinates": [103.606592, 0.291417]}, "properties": {"name": "SUNGAI GUNTUNG", "biome": null, "country": "INDONESIA", "trase_id": "ID-PORT-0125", "parent_name": "INDRAGIRI HILIR", "node_type_name": "Port", "node_type_slug": "port", "parent_node_type_name": "Kabupaten"}}, {"id": "ID-PORT-0031", "type": "Feature", "geometry": {"type": "Point", "coordinates": [140.713293, -2.545565]}, "properties": {"name": "JAYAPURA", "biome": null, "country": "INDONESIA", "trase_id": "ID-PORT-0031", "parent_name": "JAYAPURA (KOTA)", "node_type_name": "Port", "node_type_slug": "port", "parent_node_type_name": "Kabupaten"}}, {"id": "ID-PORT-0022", "type": "Feature", "geometry": {"type": "Point", "coordinates": [114.834107, -1.716004]}, "properties": {"name": "BUNTOK", "biome": null, "country": "INDONESIA", "trase_id": "ID-PORT-0022", "parent_name": "BARITO SELATAN", "node_type_name": "Port", "node_type_slug": "port", "parent_node_type_name": "Kabupaten"}}, {"id": "ID-PORT-0030", "type": "Feature", "geometry": {"type": "Point", "coordinates": [104.123841, -2.61401]}, "properties": {"name": "HINDOLI SUNGAI LILIN", "biome": null, "country": "INDONESIA", "trase_id": "ID-PORT-0030", "parent_name": "MUSI BANYUASIN", "node_type_name": "Port", "node_type_slug": "port", "parent_node_type_name": "Kabupaten"}}, {"id": "ID-PORT-0074", "type": "Feature", "geometry": {"type": "Point", "coordinates": [106.126, -2.093488]}, "properties": {"name": "PANGKAL BALAM", "biome": null, "country": "INDONESIA", "trase_id": "ID-PORT-0074", "parent_name": "PANGKAL PINANG (KOTA)", "node_type_name": "Port", "node_type_slug": "port", "parent_node_type_name": "Kabupaten"}}, {"id": "ID-PORT-0084", "type": "Feature", "geometry": {"type": "Point", "coordinates": [103.567456, -2.746807]}, "properties": {"name": "PINAGO UTAMA", "biome": null, "country": "INDONESIA", "trase_id": "ID-PORT-0084", "parent_name": "MUSI BANYUASIN", "node_type_name": "Port", "node_type_slug": "port", "parent_node_type_name": "Kabupaten"}}, {"id": "ID-PORT-0035", "type": "Feature", "geometry": {"type": "Point", "coordinates": [117.568019, 3.326153]}, "properties": {"name": "JUWATA (U)", "biome": null, "country": "INDONESIA", "trase_id": "ID-PORT-0035", "parent_name": "TARAKAN (KOTA)", "node_type_name": "Port", "node_type_slug": "port", "parent_node_type_name": "Kabupaten"}}, {"id": "ID-PORT-0056", "type": "Feature", "geometry": {"type": "Point", "coordinates": [119.40943, -5.118283]}, "properties": {"name": "MAKASSAR", "biome": null, "country": "INDONESIA", "trase_id": "ID-PORT-0056", "parent_name": "MAKASSAR (KOTA)", "node_type_name": "Port", "node_type_slug": "port", "parent_node_type_name": "Kabupaten"}}, {"id": "ID-PORT-0006", "type": "Feature", "geometry": {"type": "Point", "coordinates": [114.39893, -8.128181]}, "properties": {"name": "BANYUWANGI", "biome": null, "country": "INDONESIA", "trase_id": "ID-PORT-0006", "parent_name": "BANYUWANGI", "node_type_name": "Port", "node_type_slug": "port", "parent_node_type_name": "Kabupaten"}}, {"id": "ID-PORT-0051", "type": "Feature", "geometry": {"type": "Point", "coordinates": [109.602142, 1.405679]}, "properties": {"name": "KUMBA", "biome": null, "country": "INDONESIA", "trase_id": "ID-PORT-0051", "parent_name": "SAMBAS", "node_type_name": "Port", "node_type_slug": "port", "parent_node_type_name": "Kabupaten"}}, {"id": "ID-PORT-0141", "type": "Feature", "geometry": {"type": "Point", "coordinates": [117.36171, 2.835951]}, "properties": {"name": "TANJUNG SELOR", "biome": null, "country": "INDONESIA", "trase_id": "ID-PORT-0141", "parent_name": "BULUNGAN", "node_type_name": "Port", "node_type_slug": "port", "parent_node_type_name": "Kabupaten"}}, {"id": "ID-PORT-0166", "type": "Feature", "geometry": {"type": "Point", "coordinates": [110.216446, -2.5306959]}, "properties": {"name": "KENDAWANGAN", "biome": null, "country": "INDONESIA", "trase_id": "ID-PORT-0166", "parent_name": "KETAPANG", "node_type_name": "Port", "node_type_slug": "port", "parent_node_type_name": "Kabupaten"}}, {"id": null, "type": "Feature", "geometry": {"type": "Point", "coordinates": [102.7146701, 1.015917145]}, "properties": {"name": "SELAT PANJANG", "biome": null, "country": "INDONESIA", "trase_id": null, "parent_name": "KEPULAUAN MERANTI", "node_type_name": "Port", "node_type_slug": "port", "parent_node_type_name": "Kabupaten"}}, {"id": "ID-PORT-0096", "type": "Feature", "geometry": {"type": "Point", "coordinates": [117.34351, 2.938642]}, "properties": {"name": "SALIM BATU", "biome": null, "country": "INDONESIA", "trase_id": "ID-PORT-0096", "parent_name": "BULUNGAN", "node_type_name": "Port", "node_type_slug": "port", "parent_node_type_name": "Kabupaten"}}, {"id": "ID-PORT-0150", "type": "Feature", "geometry": {"type": "Point", "coordinates": [111.063312, -2.664796]}, "properties": {"name": "UAI", "biome": null, "country": "INDONESIA", "trase_id": "ID-PORT-0150", "parent_name": "KETAPANG", "node_type_name": "Port", "node_type_slug": "port", "parent_node_type_name": "Kabupaten"}}, {"id": "ID-PORT-0040", "type": "Feature", "geometry": {"type": "Point", "coordinates": [109.267875, 1.38881]}, "properties": {"name": "KARTIASA", "biome": null, "country": "INDONESIA", "trase_id": "ID-PORT-0040", "parent_name": "SAMBAS", "node_type_name": "Port", "node_type_slug": "port", "parent_node_type_name": "Kabupaten"}}, {"id": "ID-PORT-0120", "type": "Feature", "geometry": {"type": "Point", "coordinates": [109.95759, -1.793541]}, "properties": {"name": "SUKA BANGUN", "biome": null, "country": "INDONESIA", "trase_id": "ID-PORT-0120", "parent_name": "KETAPANG", "node_type_name": "Port", "node_type_slug": "port", "parent_node_type_name": "Kabupaten"}}, {"id": "ID-PORT-0117", "type": "Feature", "geometry": {"type": "Point", "coordinates": [109.054699, 1.197992]}, "properties": {"name": "SINTETE", "biome": null, "country": "INDONESIA", "trase_id": "ID-PORT-0117", "parent_name": "SAMBAS", "node_type_name": "Port", "node_type_slug": "port", "parent_node_type_name": "Kabupaten"}}, {"id": "ID-PORT-0041", "type": "Feature", "geometry": {"type": "Point", "coordinates": [110.986429, -2.140659]}, "properties": {"name": "KELAMPAI", "biome": null, "country": "INDONESIA", "trase_id": "ID-PORT-0041", "parent_name": "KETAPANG", "node_type_name": "Port", "node_type_slug": "port", "parent_node_type_name": "Kabupaten"}}, {"id": "ID-PORT-0001", "type": "Feature", "geometry": {"type": "Point", "coordinates": [110.653181, -2.781079]}, "properties": {"name": "AIR HITAM", "biome": null, "country": "INDONESIA", "trase_id": "ID-PORT-0001", "parent_name": "KETAPANG", "node_type_name": "Port", "node_type_slug": "port", "parent_node_type_name": "Kabupaten"}}, {"id": "ID-PORT-0111", "type": "Feature", "geometry": {"type": "Point", "coordinates": [117.169182, 3.2829]}, "properties": {"name": "SEKATAK", "biome": null, "country": "INDONESIA", "trase_id": "ID-PORT-0111", "parent_name": "BULUNGAN", "node_type_name": "Port", "node_type_slug": "port", "parent_node_type_name": "Kabupaten"}}, {"id": "ID-PORT-0008", "type": "Feature", "geometry": {"type": "Point", "coordinates": [116.009777, -3.463647]}, "properties": {"name": "BATULICIN", "biome": null, "country": "INDONESIA", "trase_id": "ID-PORT-0008", "parent_name": "TANAH BUMBU", "node_type_name": "Port", "node_type_slug": "port", "parent_node_type_name": "Kabupaten"}}, {"id": "ID-PORT-0013", "type": "Feature", "geometry": {"type": "Point", "coordinates": [107.642961, -2.750145]}, "properties": {"name": "BELITUNG", "biome": null, "country": "INDONESIA", "trase_id": "ID-PORT-0013", "parent_name": "BELITUNG", "node_type_name": "Port", "node_type_slug": "port", "parent_node_type_name": "Kabupaten"}}, {"id": "ID-PORT-0135", "type": "Feature", "geometry": {"type": "Point", "coordinates": [107.629885, -2.745173]}, "properties": {"name": "TANJUNG PANDAN", "biome": null, "country": "INDONESIA", "trase_id": "ID-PORT-0135", "parent_name": "BELITUNG", "node_type_name": "Port", "node_type_slug": "port", "parent_node_type_name": "Kabupaten"}}, {"id": "ID-PORT-0010", "type": "Feature", "geometry": {"type": "Point", "coordinates": [98.695608, 3.784132]}, "properties": {"name": "BELAWAN", "biome": null, "country": "INDONESIA", "trase_id": "ID-PORT-0010", "parent_name": "MEDAN (KOTA)", "node_type_name": "Port", "node_type_slug": "port", "parent_node_type_name": "Kabupaten"}}, {"id": "ID-PORT-0101", "type": "Feature", "geometry": {"type": "Point", "coordinates": [115.423165, -3.766431]}, "properties": {"name": "SATUI", "biome": null, "country": "INDONESIA", "trase_id": "ID-PORT-0101", "parent_name": "TANAH BUMBU", "node_type_name": "Port", "node_type_slug": "port", "parent_node_type_name": "Kabupaten"}}, {"id": "ID-PORT-0018", "type": "Feature", "geometry": {"type": "Point", "coordinates": [117.490718, 0.181206]}, "properties": {"name": "BONTANG", "biome": null, "country": "INDONESIA", "trase_id": "ID-PORT-0018", "parent_name": "BONTANG (KOTA)", "node_type_name": "Port", "node_type_slug": "port", "parent_node_type_name": "Kabupaten"}}, {"id": "ID-PORT-0077", "type": "Feature", "geometry": {"type": "Point", "coordinates": [98.677366, 3.566825]}, "properties": {"name": "PANGKALAN UDARA SOEWONDO/POLONIA (U)", "biome": null, "country": "INDONESIA", "trase_id": "ID-PORT-0077", "parent_name": "MEDAN (KOTA)", "node_type_name": "Port", "node_type_slug": "port", "parent_node_type_name": "Kabupaten"}}, {"id": "ID-PORT-0124", "type": "Feature", "geometry": {"type": "Point", "coordinates": [109.399339, -0.09552]}, "properties": {"name": "SUNGAI DURIAN", "biome": null, "country": "INDONESIA", "trase_id": "ID-PORT-0124", "parent_name": "KUBU RAYA", "node_type_name": "Port", "node_type_slug": "port", "parent_node_type_name": "Kabupaten"}}, {"id": "ID-PORT-0108", "type": "Feature", "geometry": {"type": "Point", "coordinates": [109.42498, -0.023417]}, "properties": {"name": "SEI TEMPAYAN", "biome": null, "country": "INDONESIA", "trase_id": "ID-PORT-0108", "parent_name": "KUBU RAYA", "node_type_name": "Port", "node_type_slug": "port", "parent_node_type_name": "Kabupaten"}}, {"id": "ID-PORT-0149", "type": "Feature", "geometry": {"type": "Point", "coordinates": [114.569127, -3.296871]}, "properties": {"name": "TRISAKTI", "biome": null, "country": "INDONESIA", "trase_id": "ID-PORT-0149", "parent_name": "BANJARMASIN (KOTA)", "node_type_name": "Port", "node_type_slug": "port", "parent_node_type_name": "Kabupaten"}}, {"id": "ID-PORT-0123", "type": "Feature", "geometry": {"type": "Point", "coordinates": [109.544666, -0.017306]}, "properties": {"name": "SUNGAI AMBAWANG", "biome": null, "country": "INDONESIA", "trase_id": "ID-PORT-0123", "parent_name": "KUBU RAYA", "node_type_name": "Port", "node_type_slug": "port", "parent_node_type_name": "Kabupaten"}}, {"id": "ID-PORT-0129", "type": "Feature", "geometry": {"type": "Point", "coordinates": [109.404097, -0.147028]}, "properties": {"name": "SUPADIO (U)", "biome": null, "country": "INDONESIA", "trase_id": "ID-PORT-0129", "parent_name": "KUBU RAYA", "node_type_name": "Port", "node_type_slug": "port", "parent_node_type_name": "Kabupaten"}}, {"id": "ID-PORT-0104", "type": "Feature", "geometry": {"type": "Point", "coordinates": [109.251262, -0.26667]}, "properties": {"name": "SEI DERAS", "biome": null, "country": "INDONESIA", "trase_id": "ID-PORT-0104", "parent_name": "KUBU RAYA", "node_type_name": "Port", "node_type_slug": "port", "parent_node_type_name": "Kabupaten"}}, {"id": "ID-PORT-0137", "type": "Feature", "geometry": {"type": "Point", "coordinates": [106.881748, -6.100697]}, "properties": {"name": "TANJUNG PRIOK", "biome": null, "country": "INDONESIA", "trase_id": "ID-PORT-0137", "parent_name": "JAKARTA UTARA (KOTA)", "node_type_name": "Port", "node_type_slug": "port", "parent_node_type_name": "Kabupaten"}}, {"id": "ID-PORT-0026", "type": "Feature", "geometry": {"type": "Point", "coordinates": [105.953635, -6.021017]}, "properties": {"name": "CIWANDAN", "biome": null, "country": "INDONESIA", "trase_id": "ID-PORT-0026", "parent_name": "CILEGON (KOTA)", "node_type_name": "Port", "node_type_slug": "port", "parent_node_type_name": "Kabupaten"}}, {"id": "ID-PORT-0055", "type": "Feature", "geometry": {"type": "Point", "coordinates": [101.365783, 1.752287]}, "properties": {"name": "LUBUK GAUNG", "biome": null, "country": "INDONESIA", "trase_id": "ID-PORT-0055", "parent_name": "DUMAI (KOTA)", "node_type_name": "Port", "node_type_slug": "port", "parent_node_type_name": "Kabupaten"}}, {"id": "ID-PORT-0034", "type": "Feature", "geometry": {"type": "Point", "coordinates": [101.640331, 1.650698]}, "properties": {"name": "JETTY WILMAR - PELINTUNG", "biome": null, "country": "INDONESIA", "trase_id": "ID-PORT-0034", "parent_name": "DUMAI (KOTA)", "node_type_name": "Port", "node_type_slug": "port", "parent_node_type_name": "Kabupaten"}}, {"id": "ID-PORT-0004", "type": "Feature", "geometry": {"type": "Point", "coordinates": [121.677087, -2.17451]}, "properties": {"name": "BAHUMBELU", "biome": null, "country": "INDONESIA", "trase_id": "ID-PORT-0004", "parent_name": "MOROWALI", "node_type_name": "Port", "node_type_slug": "port", "parent_node_type_name": "Kabupaten"}}, {"id": "ID-PORT-0027", "type": "Feature", "geometry": {"type": "Point", "coordinates": [101.447535, 1.685971]}, "properties": {"name": "DUMAI", "biome": null, "country": "INDONESIA", "trase_id": "ID-PORT-0027", "parent_name": "DUMAI (KOTA)", "node_type_name": "Port", "node_type_slug": "port", "parent_node_type_name": "Kabupaten"}}, {"id": "ID-PORT-0115", "type": "Feature", "geometry": {"type": "Point", "coordinates": [102.063793, 0.794899]}, "properties": {"name": "SIAK", "biome": null, "country": "INDONESIA", "trase_id": "ID-PORT-0115", "parent_name": "SIAK", "node_type_name": "Port", "node_type_slug": "port", "parent_node_type_name": "Kabupaten"}}, {"id": "ID-PORT-0083", "type": "Feature", "geometry": {"type": "Point", "coordinates": [101.648974, 0.6817]}, "properties": {"name": "PERAWANG, SUMATRA", "biome": null, "country": "INDONESIA", "trase_id": "ID-PORT-0083", "parent_name": "SIAK", "node_type_name": "Port", "node_type_slug": "port", "parent_node_type_name": "Kabupaten"}}, {"id": "ID-PORT-0058", "type": "Feature", "geometry": {"type": "Point", "coordinates": [118.89122, -2.672452]}, "properties": {"name": "MAMUJU", "biome": null, "country": "INDONESIA", "trase_id": "ID-PORT-0058", "parent_name": "MAMUJU", "node_type_name": "Port", "node_type_slug": "port", "parent_node_type_name": "Kabupaten"}}, {"id": "ID-PORT-0019", "type": "Feature", "geometry": {"type": "Point", "coordinates": [101.8094, 0.74796]}, "properties": {"name": "BUATAN", "biome": null, "country": "INDONESIA", "trase_id": "ID-PORT-0019", "parent_name": "SIAK", "node_type_name": "Port", "node_type_slug": "port", "parent_node_type_name": "Kabupaten"}}, {"id": "ID-PORT-0067", "type": "Feature", "geometry": {"type": "Point", "coordinates": [103.851379, -1.129863]}, "properties": {"name": "MUARA SABAK", "biome": null, "country": "INDONESIA", "trase_id": "ID-PORT-0067", "parent_name": "TANJUNG JABUNG TIMUR", "node_type_name": "Port", "node_type_slug": "port", "parent_node_type_name": "Kabupaten"}}, {"id": "ID-PORT-0133", "type": "Feature", "geometry": {"type": "Point", "coordinates": [122.62851, -1.209092]}, "properties": {"name": "TANGKIANG", "biome": null, "country": "INDONESIA", "trase_id": "ID-PORT-0133", "parent_name": "BANGGAI", "node_type_name": "Port", "node_type_slug": "port", "parent_node_type_name": "Kabupaten"}}, {"id": "ID-PORT-0017", "type": "Feature", "geometry": {"type": "Point", "coordinates": [119.291911, -1.650927]}, "properties": {"name": "BONE MANJING", "biome": null, "country": "INDONESIA", "trase_id": "ID-PORT-0017", "parent_name": "MAMUJU UTARA", "node_type_name": "Port", "node_type_slug": "port", "parent_node_type_name": "Kabupaten"}}]}